Longitude,Latitude,Speed,Distance,Time,Time in epoch, Acc X,Acc Y,Acc Z,Heading,gyro_x,gyro_y,gyro_z,pitch_deg,roll_deg,azimuth_deg
-87.64715858,41.86969617,0.0,237.04724,16-21-39-535,1502140899536,-0.039589953,-0.088548124,0.43258178,131.0,-0.071829766,0.0036967776,0.007961354,-0.26706455869402407,-0.7112065740973889,241.21396716301717
-87.64715858,41.86969617,0.0,237.04724,16-21-39-544,1502140899545,-0.039589953,-0.088548124,0.43258178,131.0,-0.071829766,0.0036967776,0.007961354,-0.26706455869402407,-0.7112065740973889,241.21396716301717
-87.64715858,41.86969617,0.0,237.04724,16-21-39-562,1502140899563,-0.039589953,-0.088548124,0.43258178,131.0,-0.071829766,0.0036967776,0.007961354,-0.26706455869402407,-0.7112065740973889,241.21396716301717
-87.64715858,41.86969617,0.0,237.04724,16-21-39-573,1502140899574,-0.039589953,-0.088548124,0.43258178,131.0,-0.071829766,0.0036967776,0.007961354,-0.26706455869402407,-0.7112065740973889,241.21396716301717
-87.64715858,41.86969617,0.0,237.04724,16-21-39-581,1502140899582,-0.039589953,-0.088548124,0.43258178,131.0,-0.071829766,0.0036967776,0.007961354,-0.26706455869402407,-0.7112065740973889,241.21396716301717
-87.64715603,41.86969647,0.0,0.0,16-21-39-632,1502140899633,0.050003752,-0.013992627,0.20341496,129.0,-0.0041854708,0.025002068,-2.8128852E-5,-0.2230809418839187,-0.7641234113312098,235.72127929665464
-87.64715603,41.86969647,0.0,0.0,16-21-39-645,1502140899646,0.08250593,-0.020038474,0.32297835,131.0,0.0016734836,-0.025065362,-0.012811303,-0.19563107862029858,-0.7630991497599723,235.58851407956794
-87.64715603,41.86969647,0.0,0.0,16-21-39-661,1502140899662,0.030779893,-0.03182558,0.3007207,130.0,-4.5704527E-4,-0.01760851,-0.0037565543,-0.20691463117043898,-0.7523513134924282,235.45115897535896
-87.64715603,41.86969647,0.0,0.0,16-21-39-673,1502140899674,0.030779893,-0.03182558,0.3007207,130.0,-4.5704527E-4,-0.01760851,-0.0037565543,-0.20691463117043898,-0.7523513134924282,235.45115897535896
-87.64715603,41.86969647,0.0,0.0,16-21-39-679,1502140899679,0.030779893,-0.03182558,0.3007207,130.0,-4.5704527E-4,-0.01760851,-0.0037565543,-0.20691463117043898,-0.7523513134924282,235.45115897535896
-87.64715603,41.86969647,0.0,0.0,16-21-39-732,1502140899733,0.04967372,-0.004508105,0.40658224,125.0,0.0075324387,-0.030391684,0.007961354,-0.24906319493005877,-0.7494811932979949,235.00818022654863
-87.64715603,41.86969647,0.0,0.0,16-21-39-744,1502140899745,0.034198694,-0.010667336,0.3812056,125.0,0.0075324387,-0.030391684,0.007961354,-0.26798772812946003,-0.7553432031531583,234.85329885692943
-87.64715603,41.86969647,0.0,0.0,16-21-39-760,1502140899761,0.02215145,-0.025697695,0.30274338,123.0,0.0054019094,-0.021869568,0.0021024002,-0.30061978398241573,-0.7645926133106778,234.7063678275041
-87.64715603,41.86969647,0.0,0.0,16-21-39-773,1502140899773,0.0371697,-0.025125073,0.3035971,122.0,0.014456656,-0.036783274,-0.009082877,-0.32725493374410025,-0.7693369267411921,234.55923189240372
-87.64715603,41.86969647,0.0,0.0,16-21-39-778,1502140899778,0.0371697,-0.025125073,0.3035971,122.0,0.014456656,-0.036783274,-0.009082877,-0.32725493374410025,-0.7693369267411921,234.55923189240372
-87.64715603,41.86969647,0.0,0.0,16-21-39-854,1502140899857,0.011379761,-0.039978255,0.32004085,114.0,0.009662967,-0.01707588,-0.0037565543,-0.4163920507030872,-0.7271037860297406,233.94433728218414
-87.64715603,41.86969647,0.0,0.0,16-21-39-854,1502140899857,0.011379761,-0.039978255,0.32004085,114.0,0.009662967,-0.01707588,-0.0037565543,-0.4163920507030872,-0.7271037860297406,233.94433728218414
-87.64715603,41.86969647,0.0,0.0,16-21-39-860,1502140899861,0.011379761,-0.039978255,0.32004085,114.0,0.009662967,-0.01707588,-0.0037565543,-0.4163920507030872,-0.7271037860297406,233.94433728218414
-87.64715603,41.86969647,0.0,0.0,16-21-39-876,1502140899876,0.03218524,-0.043238115,0.3238428,113.0,0.002206116,-0.023467464,-0.0069523477,-0.43514486867788615,-0.7210175538707303,233.79375893174205
-87.64715603,41.86969647,0.0,0.0,16-21-39-884,1502140899885,0.03218524,-0.043238115,0.3238428,113.0,0.002206116,-0.023467464,-0.0069523477,-0.43514486867788615,-0.7210175538707303,233.79375893174205
-87.64715603,41.86969647,0.0,0.0,16-21-39-932,1502140899932,-0.013488835,-0.01799615,0.31245252,109.0,0.01765245,-0.0074884994,0.0021024002,-0.4884545218302621,-0.7117891678892497,233.3874036572613
-87.64715603,41.86969647,0.0,0.0,16-21-39-944,1502140899945,-0.013488835,-0.01799615,0.31245252,109.0,0.01765245,-0.0074884994,0.0021024002,-0.4884545218302621,-0.7117891678892497,233.3874036572613
-87.64715603,41.86969647,0.0,0.0,16-21-39-962,1502140899962,-0.012793236,-0.020843862,0.28928247,109.0,0.022978771,-0.0037600736,0.0010371356,-0.49413958709723993,-0.7152906536950862,233.23838258994994
-87.64715603,41.86969647,0.0,0.0,16-21-39-972,1502140899973,-0.015172715,-0.04450404,0.2678566,108.0,0.027772462,0.005294674,-5.607611E-4,-0.5018729087024282,-0.7168404129455915,233.07684861607913
-87.64715603,41.86969647,0.0,0.0,16-21-39-978,1502140899979,-0.015172715,-0.04450404,0.2678566,108.0,0.027772462,0.005294674,-5.607611E-4,-0.5018729087024282,-0.7168404129455915,233.07684861607913
-87.64715603,41.86969647,0.0,0.0,16-21-40-032,1502140900033,0.03528533,-0.020095117,0.35752663,108.0,-0.0015223097,-0.03145695,5.045034E-4,-0.49703569402703107,-0.7252044598319481,232.58163258049655
-87.64715603,41.86969647,0.0,0.0,16-21-40-045,1502140900045,0.03528533,-0.020095117,0.35752663,108.0,-0.0015223097,-0.03145695,5.045034E-4,-0.49703569402703107,-0.7252044598319481,232.58163258049655
-87.64715603,41.86969647,0.0,0.0,16-21-40-062,1502140900063,1.3657379E-5,-0.04305593,0.34192136,107.0,-0.01590338,-0.030391684,0.0031676646,-0.5241205957373051,-0.7264234351553839,232.44125853267445
-87.64715603,41.86969647,0.0,0.0,16-21-40-076,1502140900077,-0.029552398,-0.0761838,0.320917,105.0,-0.010577058,-0.006423235,0.007961354,-0.559122593830123,-0.7285264397286602,232.32022758058181
-87.64715603,41.86969647,0.0,0.0,16-21-40-083,1502140900083,-0.029552398,-0.0761838,0.320917,105.0,-0.010577058,-0.006423235,0.007961354,-0.559122593830123,-0.7285264397286602,232.32022758058181
-87.64715603,41.86969647,0.0,0.0,16-21-40-132,1502140900133,-9.6514734E-4,-0.048856627,0.25485066,104.0,0.010728231,-0.009086396,-0.008017613,-0.5900768510660621,-0.7517886766595485,231.93060626956762
-87.64715603,41.86969647,0.0,0.0,16-21-40-147,1502140900150,-9.6514734E-4,-0.048856627,0.25485066,104.0,0.00806507,-0.014412719,-0.017604992,-0.5900768510660621,-0.7517886766595485,231.93060626956762
-87.64715603,41.86969647,0.0,0.0,16-21-40-162,1502140900162,0.024337586,-0.055591963,0.23886015,103.0,0.00806507,-0.014412719,-0.017604992,-0.5979029671944274,-0.7475424867907691,231.78523252327307
-87.64715603,41.86969647,0.0,0.0,16-21-40-264,1502140900265,-0.047319043,-0.029217763,0.3874216,96.0,0.00806507,-0.0032274413,-0.0021586576,-0.6682403086280716,-0.6613107615499763,231.04538643237728
-87.64715603,41.86969647,0.0,0.0,16-21-40-265,1502140900266,-0.047319043,-0.029217763,0.3874216,96.0,0.00806507,-0.0032274413,-0.0021586576,-0.6682403086280716,-0.6613107615499763,231.04538643237728
-87.64715603,41.86969647,0.0,0.0,16-21-40-264,1502140900266,-0.047319043,-0.029217763,0.3874216,96.0,0.00806507,-0.0032274413,-0.0021586576,-0.6682403086280716,-0.6613107615499763,231.04538643237728
-87.64715603,41.86969647,0.0,0.0,16-21-40-266,1502140900267,-0.047319043,-0.029217763,0.3874216,96.0,0.00806507,-0.0032274413,-0.0021586576,-0.6682403086280716,-0.6613107615499763,231.04538643237728
-87.64715603,41.86969647,0.0,0.0,16-21-40-267,1502140900268,-0.047319043,-0.029217763,0.3874216,96.0,0.00806507,-0.0032274413,-0.0021586576,-0.6682403086280716,-0.6613107615499763,231.04538643237728
-87.64715603,41.86969647,0.0,0.0,16-21-40-274,1502140900274,-0.018901056,6.6411674E-5,0.38753685,96.0,0.00806507,-0.0074884994,-0.009082877,-0.6667507937804799,-0.6590751018964136,230.9036190259645
-87.64715603,41.86969647,0.0,0.0,16-21-40-279,1502140900279,-0.018901056,6.6411674E-5,0.38753685,96.0,0.00806507,-0.0074884994,-0.009082877,-0.6667507937804799,-0.6590751018964136,230.9036190259645
-87.64715603,41.86969647,0.0,0.0,16-21-40-332,1502140900333,-0.018850358,-0.0020013885,0.31329164,93.0,0.01765245,-0.0058906022,-0.020268153,-0.6865140528656175,-0.6337326454764334,230.62026179805736
-87.64715603,41.86969647,0.0,0.0,16-21-40-346,1502140900348,-0.032652117,-0.018294094,0.31985033,92.0,0.01765245,-0.0058906022,-0.020268153,-0.6969235813258343,-0.6131519514858627,230.48018827855873
-87.64715603,41.86969647,0.0,0.0,16-21-40-362,1502140900363,-0.0029943236,-0.0065269456,0.31072104,90.0,0.021380875,-0.002694809,-0.024529211,-0.7031181893770657,-0.590909013566893,230.33015634325022
-87.64715603,41.86969647,0.0,0.0,16-21-40-378,1502140900378,0.02083892,5.8640086E-5,0.28738296,89.0,0.0054019094,0.002098881,-0.01920289,-0.7053778614144292,-0.5658427529214751,230.17471489811908
-87.64715603,41.86969647,0.0,0.0,16-21-40-381,1502140900382,0.02083892,5.8640086E-5,0.28738296,89.0,0.0054019094,0.002098881,-0.01920289,-0.7053778614144292,-0.5658427529214751,230.17471489811908
-87.64715603,41.86969647,0.0,0.0,16-21-40-434,1502140900434,0.048940867,-0.013666251,0.41130644,87.0,-0.002587574,-0.004825338,0.0010371356,-0.6855244758487591,-0.5177587547731143,229.7769110204792
-87.64715255,41.86969548,0.0,0.30912638,16-21-40-471,1502140900472,0.052834596,-0.022085158,0.35805959,87.0,0.0011408514,0.010620996,0.0015697678,-0.6836097283644812,-0.5170208275384884,229.64936406791838
-87.64715255,41.86969548,0.0,0.30912638,16-21-40-470,1502140900472,0.052834596,-0.022085158,0.35805959,87.0,0.010728231,5.0098426E-4,-0.0037565543,-0.6836097283644812,-0.5170208275384884,229.64936406791838
-87.64715255,41.86969548,0.0,0.30912638,16-21-40-479,1502140900480,0.054982487,-0.034338277,0.34129727,87.0,0.010728231,5.0098426E-4,-0.0037565543,-0.6798041924188734,-0.5213785415898095,229.52273236070633
-87.64715255,41.86969548,0.0,0.30912638,16-21-40-481,1502140900481,0.054982487,-0.034338277,0.34129727,87.0,0.010728231,5.0098426E-4,-0.0037565543,-0.6798041924188734,-0.5213785415898095,229.52273236070633
-87.64715255,41.86969548,0.0,0.30912638,16-21-40-533,1502140900534,0.014498674,0.055855952,0.30535558,86.0,0.016054554,0.0031641454,0.0052981935,-0.6797290603380033,-0.5086525117839005,229.0785241778454
-87.64715255,41.86969548,0.0,0.30912638,16-21-40-546,1502140900547,0.014498674,0.055855952,0.30535558,86.0,0.016054554,0.0031641454,0.0052981935,-0.6797290603380033,-0.5086525117839005,229.0785241778454
-87.64715255,41.86969548,0.0,0.30912638,16-21-40-565,1502140900566,0.05760312,0.056991056,0.41412154,87.0,0.014456656,-0.016010614,0.0021024002,-0.6671256004111843,-0.5136497022962639,228.92946212939904
-87.64715255,41.86969548,0.0,0.30912638,16-21-40-578,1502140900578,0.016398609,0.002360177,0.35484165,86.0,-0.007381264,-0.010684293,0.013820309,-0.679999706583865,-0.5176318093040873,228.7843342699146
-87.64715255,41.86969548,0.0,0.30912638,16-21-40-582,1502140900583,0.016398609,0.002360177,0.35484165,86.0,-0.007381264,-0.010684293,0.013820309,-0.679999706583865,-0.5176318093040873,228.7843342699146
-87.64715255,41.86969548,0.0,0.30912638,16-21-40-632,1502140900633,0.05478071,-0.016614871,0.4383675,86.0,0.033098783,-0.013880086,0.0037002969,-0.7100095300844912,-0.541753689575045,228.53346142170003
-87.64715255,41.86969548,0.0,0.30912638,16-21-40-646,1502140900647,0.013164703,-0.011482628,0.33424827,85.0,0.033098783,-0.013880086,0.0037002969,-0.7381329407137245,-0.5498637921624947,228.3948222419271
-87.64715255,41.86969548,0.0,0.30912638,16-21-40-665,1502140900666,-0.04027099,-0.015221756,0.2542295,84.0,0.046947222,0.007957836,0.0052981935,-0.7593557258471293,-0.5542776951919097,228.2378918155569
-87.64715255,41.86969548,0.0,0.30912638,16-21-40-677,1502140900678,-0.04027099,-0.015221756,0.2542295,84.0,0.0581325,0.015414686,-0.0016260255,-0.7593557258471293,-0.5542776951919097,228.2378918155569
-87.64715255,41.86969548,0.0,0.30912638,16-21-40-680,1502140900681,-0.04027099,-0.015221756,0.2542295,84.0,0.0581325,0.015414686,-0.0016260255,-0.7593557258471293,-0.5542776951919097,228.2378918155569
-87.64715255,41.86969548,0.0,0.30912638,16-21-40-733,1502140900734,-0.010308176,0.06713255,0.2838571,83.0,0.05067565,0.0010336165,-0.022931315,-0.7343047264056382,-0.5301250257088339,227.47836111947313
-87.64715255,41.86969548,0.0,0.30912638,16-21-40-751,1502140900752,-0.010308176,0.06713255,0.2838571,83.0,0.04375143,0.0010336165,-0.026127107,-0.7343047264056382,-0.5301250257088339,227.47836111947313
-87.64715255,41.86969548,0.0,0.30912638,16-21-40-765,1502140900766,0.013973017,0.055999946,0.2861191,82.0,0.04375143,0.0010336165,-0.026127107,-0.7325799435576512,-0.5053298915569537,227.29083144562128
-87.64715255,41.86969548,0.0,0.30912638,16-21-40-783,1502140900784,0.016958693,0.041648544,0.34512556,80.0,0.05387144,0.011153628,-0.02399658,-0.7288016750078705,-0.47739239013919177,227.11134773461168
-87.64715255,41.86969548,0.0,0.30912638,16-21-40-784,1502140900785,0.016958693,0.041648544,0.34512556,80.0,0.05387144,0.011153628,-0.02399658,-0.7288016750078705,-0.47739239013919177,227.11134773461168
-87.64715255,41.86969548,0.0,0.30912638,16-21-40-832,1502140900833,0.03457896,0.012462432,0.32916924,76.0,0.05333881,-0.0021621769,-0.020800786,-0.7148755596204492,-0.4043496001031349,226.53743425941218
-87.64715255,41.86969548,0.0,0.30912638,16-21-40-850,1502140900850,0.03457896,0.012462432,0.32916924,76.0,0.07038304,-0.0021621769,-0.027192373,-0.7148755596204492,-0.4043496001031349,226.53743425941218
-87.64715255,41.86969548,0.0,0.30912638,16-21-40-866,1502140900866,0.03484916,0.015748821,0.3268371,75.0,0.07038304,-0.0021621769,-0.027192373,-0.7123097563700517,-0.3819748075166723,226.34926254777832
-87.64715255,41.86969548,0.0,0.30912638,16-21-40-880,1502140900881,0.04353384,0.050833713,0.38940135,73.0,0.09168833,-0.01015166,-0.034649223,-0.7127409120614087,-0.3545335887112205,226.14958879758217
-87.64715255,41.86969548,0.0,0.30912638,16-21-40-882,1502140900883,0.04353384,0.050833713,0.38940135,73.0,0.09168833,-0.01015166,-0.034649223,-0.7127409120614087,-0.3545335887112205,226.14958879758217
-87.64715255,41.86969548,0.0,0.30912638,16-21-40-933,1502140900934,-0.01813542,-0.040265102,0.19754453,64.0,0.04375143,-0.002694809,-0.010680774,-0.7562673597643728,-0.25176645573750284,225.49658173179395
-87.64715255,41.86969548,0.0,0.30912638,16-21-40-949,1502140900950,-0.01813542,-0.040265102,0.19754453,64.0,0.04375143,-0.002694809,-0.010680774,-0.7562673597643728,-0.25176645573750284,225.49658173179395
-87.64715255,41.86969548,0.0,0.30912638,16-21-40-966,1502140900966,-0.011608903,-0.036063474,0.24951072,62.0,0.035229314,-0.002694809,0.0026350324,-0.7637718166715127,-0.23489466118795488,225.31402443565784
-87.64715255,41.86969548,0.0,0.30912638,16-21-40-983,1502140900984,-0.051418867,-0.038459837,0.26415008,62.0,0.027772462,0.0068925703,0.019679263,-0.7654325664960308,-0.23214705751175857,225.14617936699395
-87.64715255,41.86969548,0.0,0.30912638,16-21-40-987,1502140900987,-0.051418867,-0.038459837,0.26415008,62.0,0.027772462,0.0068925703,0.019679263,-0.7654325664960308,-0.23214705751175857,225.14617936699395
-87.64715255,41.86969548,0.0,0.30912638,16-21-41-032,1502140901033,-0.049878992,-0.040040456,0.33174106,65.0,0.07038304,0.025002068,-0.008017613,-0.7372837561008215,-0.2717557780759121,224.82003783412583
-87.64715255,41.86969548,0.0,0.30912638,16-21-41-051,1502140901051,0.007946341,0.017434066,0.28459573,66.0,0.07038304,0.025002068,-0.008017613,-0.7118811086387805,-0.28299090565205415,224.62544574467216
-87.64715255,41.86969548,0.0,0.30912638,16-21-41-066,1502140901066,0.07198923,0.03033691,0.2526657,67.0,0.057067234,-3.164797E-5,-0.021333419,-0.6874784435599116,-0.2795176744178233,224.42164656021734
-87.64715255,41.86969548,0.0,0.30912638,16-21-41-080,1502140901080,0.09783202,0.019386403,0.3313186,65.0,0.05600197,-0.014412719,-0.030388165,-0.6736659867891476,-0.2618013643300003,224.22954065962156
-87.64715255,41.86969548,0.0,0.30912638,16-21-41-083,1502140901084,0.09783202,0.019386403,0.3313186,65.0,0.05600197,-0.014412719,-0.030388165,-0.6736659867891476,-0.2618013643300003,224.22954065962156
-87.64715255,41.86969548,0.0,0.30912638,16-21-41-133,1502140901134,-0.054148566,-0.057166778,0.33374223,59.0,0.013924025,-0.01760851,0.015950838,-0.7228461235775897,-0.19509294775910885,223.6924009229134
-87.64715255,41.86969548,0.0,0.30912638,16-21-41-150,1502140901151,-0.054148566,-0.057166778,0.33374223,59.0,0.0091303345,-0.008553764,0.026603483,-0.7228461235775897,-0.19509294775910885,223.6924009229134
-87.64715255,41.86969548,0.0,0.30912638,16-21-41-167,1502140901167,-0.058884725,-0.05644799,0.3075395,59.0,0.00806507,-5.642802E-4,0.033527702,-0.7420900748423949,-0.20772051345122114,223.54771019553587
-87.64715255,41.86969548,0.0,0.30912638,16-21-41-179,1502140901180,-0.03215114,-0.017346084,0.3181266,61.0,0.0091303345,0.0063599385,0.031929806,-0.748260830592384,-0.2402287187646175,223.41643395968822
-87.64715255,41.86969548,0.0,0.30912638,16-21-41-182,1502140901183,-0.03215114,-0.017346084,0.3181266,61.0,0.0091303345,0.0063599385,0.031929806,-0.748260830592384,-0.2402287187646175,223.41643395968822
-87.64715255,41.86969548,0.0,0.30912638,16-21-41-234,1502140901235,0.029673412,0.03590131,0.2594412,66.0,-0.01590338,0.0010336165,0.017016102,-0.753259248404364,-0.31314501689889684,223.01388993076435
-87.64715255,41.86969548,0.0,0.30912638,16-21-41-251,1502140901252,0.10362424,0.05116389,0.43559358,66.0,-0.067568704,-0.06448015,0.023940321,-0.7557900469352653,-0.32476621024570335,222.8967385261203
-87.64715255,41.86969548,0.0,0.30912638,16-21-41-268,1502140901268,0.10362424,0.05116389,0.43559358,66.0,-0.067568704,-0.06448015,0.023940321,-0.7557900469352653,-0.32476621024570335,222.8967385261203
-87.64715255,41.86969548,0.0,0.30912638,16-21-41-280,1502140901280,0.12911884,0.079452984,0.6194681,67.0,-0.04679605,-0.17846344,0.017016102,-0.7922674192496588,-0.35215943096397995,222.83880486158023
-87.64715255,41.86969548,0.0,0.30912638,16-21-41-283,1502140901283,0.12911884,0.079452984,0.6194681,67.0,-0.04679605,-0.17846344,0.017016102,-0.7922674192496588,-0.35215943096397995,222.83880486158023
-87.64715255,41.86969548,0.0,0.30912638,16-21-41-333,1502140901334,0.11712045,-0.08394673,0.38390565,60.0,0.027772462,-0.037848536,-0.01227867,-1.1553442139108165,-0.350964227900507,222.61239775097266
-87.64715255,41.86969548,0.0,0.30912638,16-21-41-351,1502140901351,0.11712045,-0.08394673,0.38390565,60.0,0.033098783,-0.016010614,0.0037002969,-1.1553442139108165,-0.350964227900507,222.61239775097266
-87.64715255,41.86969548,0.0,0.30912638,16-21-41-368,1502140901368,0.13877018,-0.11247415,0.44077048,58.0,0.033098783,-0.016010614,0.0037002969,-1.1827158768445254,-0.33701892928647154,222.4748650618453
-87.64715255,41.86969548,0.0,0.30912638,16-21-41-379,1502140901380,0.13877018,-0.11247415,0.44077048,58.0,0.026174566,0.0026315132,0.01435294,-1.1827158768445254,-0.33701892928647154,222.4748650618453
-87.64715255,41.86969548,0.0,0.30912638,16-21-41-383,1502140901384,0.1136628,-0.07262546,0.32997593,58.0,0.026174566,0.0026315132,0.01435294,-1.2149426303393496,-0.3347000800632522,222.320502786603
-87.64715255,41.86969548,0.0,0.30912638,16-21-41-434,1502140901435,0.15346785,0.09193127,0.5254957,58.0,0.021380875,-0.07140437,5.045034E-4,-1.259104178913419,-0.36448274641312256,222.01537091562184
-87.64715051,41.86969582,0.0,0.4639201,16-21-41-451,1502140901452,0.035334248,0.04945692,0.3193614,57.0,-0.015370748,-0.082057014,0.007961354,-1.364589086846567,-0.372111000498969,221.84435663918308
-87.64715051,41.86969582,0.0,0.4639201,16-21-41-469,1502140901469,-0.032223016,0.042053536,0.24005267,56.0,-0.015370748,-0.082057014,0.007961354,-1.4576401690042358,-0.37268102780997414,221.69325919436403
-87.64715051,41.86969582,0.0,0.4639201,16-21-41-479,1502140901480,-0.047513332,0.032024935,0.26424977,55.0,-0.049991842,-0.103894934,0.0063634575,-1.541852025880556,-0.3789251814131145,221.58032884662705
-87.64715051,41.86969582,0.0,0.4639201,16-21-41-483,1502140901484,-0.047513332,0.032024935,0.26424977,55.0,-0.049991842,-0.103894934,0.0063634575,-1.541852025880556,-0.3789251814131145,221.58032884662705
-87.64715051,41.86969582,0.0,0.4639201,16-21-41-534,1502140901534,-0.12610067,-0.031205853,0.26502413,58.0,-0.008446529,0.005827307,-0.005354451,-1.4932176638954802,-0.4393466089562076,221.30672512885468
-87.64715051,41.86969582,0.0,0.4639201,16-21-41-551,1502140901551,-0.12610067,-0.031205853,0.26502413,58.0,-0.029751819,0.024469435,0.03086454,-1.4932176638954802,-0.4393466089562076,221.30672512885468
-87.64715051,41.86969582,0.0,0.4639201,16-21-41-569,1502140901569,-0.02038429,0.04642546,0.5194345,59.0,-0.019099174,0.029795757,0.027136113,-1.4266921549880849,-0.4597406200029401,221.21815123569795
-87.64715051,41.86969582,0.0,0.4639201,16-21-41-579,1502140901580,-0.040476084,0.04853773,0.33651474,60.0,-0.009511793,0.027132597,0.01648347,-1.4102204067526587,-0.4785728389268404,221.129085568921
-87.64715051,41.86969582,0.0,0.4639201,16-21-41-581,1502140901582,-0.040476084,0.04853773,0.33651474,60.0,-0.009511793,0.027132597,0.01648347,-1.4102204067526587,-0.4785728389268404,221.129085568921
-87.64715051,41.86969582,0.0,0.4639201,16-21-41-634,1502140901634,0.044652723,0.021368569,0.6449004,61.0,0.0581325,-0.044772755,-0.030388165,-1.323397710066101,-0.4960819755033152,220.80928245160266
-87.64715051,41.86969582,0.0,0.4639201,16-21-41-651,1502140901652,0.044652723,0.021368569,0.6449004,61.0,0.0581325,-0.044772755,-0.030388165,-1.323397710066101,-0.4960819755033152,220.80928245160266
-87.64715051,41.86969582,0.0,0.4639201,16-21-41-670,1502140901670,-0.06584656,0.018764587,0.444272,59.0,0.059730396,0.043644194,-0.01227867,-1.3563350166780181,-0.46288688261108296,220.6390604771076
-87.64715051,41.86969582,0.0,0.4639201,16-21-41-680,1502140901680,-0.15765549,-0.008218241,0.2824412,58.0,0.059730396,0.043644194,-0.01227867,-1.3791705802291923,-0.43555836192693637,220.45286952033305
-87.64715051,41.86969582,0.0,0.4639201,16-21-41-683,1502140901683,-0.15765549,-0.008218241,0.2824412,58.0,0.059730396,0.043644194,-0.01227867,-1.3791705802291923,-0.43555836192693637,220.45286952033305
-87.64715051,41.86969582,0.0,0.4639201,16-21-41-734,1502140901735,-0.05725815,0.08755086,0.09609296,57.0,0.019250346,0.053764205,-0.014409199,-1.2663680850957275,-0.39963959770102936,219.91669967048705
-87.64715051,41.86969582,0.0,0.4639201,16-21-41-752,1502140901753,-0.05725815,0.13917221,0.22381465,58.0,0.025641933,0.029263126,-0.03145343,-1.2083815933113176,-0.386665706733443,219.77594313207143
-87.64715051,41.86969582,0.0,0.4639201,16-21-41-770,1502140901771,0.04030285,0.13917221,0.22381465,58.0,0.024044037,0.010620996,-0.051160824,-1.2083815933113176,-0.386665706733443,219.77594313207143
-87.64715051,41.86969582,0.0,0.4639201,16-21-41-780,1502140901780,0.07081649,0.1449052,0.35618517,57.0,0.024044037,0.010620996,-0.051160824,-1.1617914856004854,-0.3564901977845911,219.63454455587382
-87.64715051,41.86969582,0.0,0.4639201,16-21-41-784,1502140901784,0.07081649,0.1449052,0.35618517,57.0,0.024044037,0.010620996,-0.051160824,-1.1617914856004854,-0.3564901977845911,219.63454455587382
-87.64715051,41.86969582,0.0,0.4639201,16-21-41-833,1502140901834,0.013416541,0.13583359,0.46227443,50.0,-0.016436012,0.03565471,-0.01920289,-1.0638887279762863,-0.20725045769810674,219.28060415308374
-87.64715051,41.86969582,0.0,0.4639201,16-21-41-851,1502140901852,0.013416541,0.13583359,0.46227443,50.0,-0.026023392,0.02766523,-0.009615509,-1.0638887279762863,-0.20725045769810674,219.28060415308374
-87.64715051,41.86969582,0.0,0.4639201,16-21-41-871,1502140901871,-0.008487638,0.11327261,0.39984253,49.0,-0.028686553,0.026067331,-0.011213406,-1.0291693823212305,-0.17543295526452793,219.18513176886532
-87.64715051,41.86969582,0.0,0.4639201,16-21-41-883,1502140901883,0.027938534,0.07389373,0.4305081,48.0,-0.028686553,0.026067331,-0.011213406,-0.9908853182496629,-0.16007767615413435,219.1030465554201
-87.64715051,41.86969582,0.0,0.4639201,16-21-41-885,1502140901886,0.027938534,0.07389373,0.4305081,48.0,-0.028686553,0.026067331,-0.011213406,-0.9908853182496629,-0.16007767615413435,219.1030465554201
-87.64715051,41.86969582,0.0,0.4639201,16-21-41-933,1502140901934,0.097408876,0.123708665,0.4489747,47.0,-0.05372027,0.0063599385,-0.0026912899,-0.8971127973609115,-0.13457305610221915,218.89334608752236
-87.64715051,41.86969582,0.0,0.4639201,16-21-41-952,1502140901953,0.059819184,0.060564864,0.39648983,47.0,-0.057981327,0.0047620414,-0.0016260255,-0.8864914796755714,-0.1316831390313633,218.8430075933394
-87.64715051,41.86969582,0.0,0.4639201,16-21-41-972,1502140901973,0.059819184,0.060564864,0.39648983,47.0,-0.048393946,-0.0112169245,-0.010680774,-0.8864914796755714,-0.1316831390313633,218.8430075933394
-87.64715051,41.86969582,0.0,0.4639201,16-21-41-983,1502140901984,0.057216853,0.06060014,0.3679977,47.0,-0.048393946,-0.0112169245,-0.010680774,-0.8781072623868221,-0.12806923524869931,218.7974912127104
-87.64715051,41.86969582,0.0,0.4639201,16-21-41-986,1502140901989,0.057216853,0.06060014,0.3679977,47.0,-0.048393946,-0.0112169245,-0.010680774,-0.8781072623868221,-0.12806923524869931,218.7974912127104
-87.64715051,41.86969582,0.0,0.4639201,16-21-42-033,1502140902034,0.03175578,0.050034855,0.2846959,45.0,-0.048393946,-0.02932642,-0.011213406,-0.917845943308191,-0.09468544504043228,218.61013912377697
-87.64715051,41.86969582,0.0,0.4639201,16-21-42-053,1502140902053,0.03175578,0.050034855,0.2846959,45.0,-0.053187635,-0.014412719,-0.013343935,-0.917845943308191,-0.09468544504043228,218.61013912377697
-87.64715051,41.86969582,0.0,0.4639201,16-21-42-072,1502140902072,-0.0041209855,0.045903023,0.26829812,43.0,-0.054785535,0.0047620414,-0.014409199,-0.9395321140880988,-0.08125434494506499,218.55168636486
-87.64715051,41.86969582,0.0,0.4639201,16-21-42-081,1502140902082,-0.049417622,0.06709907,0.2514038,42.0,-0.054785535,0.0047620414,-0.014409199,-0.9671827475607203,-0.06416170983572213,218.50050092721992
-87.64715051,41.86969582,0.0,0.4639201,16-21-42-084,1502140902085,-0.049417622,0.06709907,0.2514038,42.0,-0.054785535,0.0047620414,-0.014409199,-0.9671827475607203,-0.06416170983572213,218.50050092721992
-87.64715051,41.86969582,0.0,0.4639201,16-21-42-134,1502140902134,-0.027828773,0.08384161,0.4234874,38.0,-0.02069707,-0.015477982,-0.030388165,-0.9782927972976865,0.0021654857547539225,218.34137117993697
-87.64715051,41.86969582,0.0,0.4639201,16-21-42-153,1502140902154,-0.05527238,0.07627524,0.39094386,36.0,-0.026023392,-0.0010969124,-0.026127107,-0.9963152119181171,0.035764864856063554,218.26357532529053
-87.64715051,41.86969582,0.0,0.4639201,16-21-42-172,1502140902173,-0.05527238,0.07627524,0.39094386,36.0,-0.02069707,-0.026130626,-0.036779754,-0.9963152119181171,0.035764864856063554,218.26357532529053
-87.64715051,41.86969582,0.0,0.4639201,16-21-42-182,1502140902183,-0.005306831,0.04785936,0.4278905,34.0,-0.02069707,-0.026130626,-0.036779754,-1.0006053177688257,0.06872903198730454,218.18099833822507
-87.64715051,41.86969582,0.0,0.4639201,16-21-42-184,1502140902185,-0.005306831,0.04785936,0.4278905,34.0,-0.02069707,-0.026130626,-0.036779754,-1.0006053177688257,0.06872903198730454,218.18099833822507
-87.64715051,41.86969582,0.0,0.4639201,16-21-42-234,1502140902234,-0.02027693,0.05672904,0.40384492,28.0,-0.034545507,-0.009619028,-0.035181858,-1.060615679981675,0.19296407651239372,217.9410811134392
-87.64715051,41.86969582,0.0,0.4639201,16-21-42-254,1502140902255,0.030748984,0.04934903,0.49075294,25.0,-0.029219186,-0.030924316,-0.037312385,-1.068308607421225,0.23624674515892652,217.87307975006254
-87.64715051,41.86969582,0.0,0.4639201,16-21-42-272,1502140902273,0.030748984,0.04934903,0.49075294,25.0,-0.020164438,-0.03145695,-0.039442915,-1.068308607421225,0.23624674515892652,217.87307975006254
-87.64715051,41.86969582,0.0,0.4639201,16-21-42-283,1502140902284,0.039693344,0.03540239,0.51933193,23.0,-0.020164438,-0.03145695,-0.039442915,-1.0932552330344618,0.27962871835268893,217.80010600897015
-87.64715051,41.86969582,0.0,0.4639201,16-21-42-285,1502140902286,0.039693344,0.03540239,0.51933193,23.0,-0.020164438,-0.03145695,-0.039442915,-1.0932552330344618,0.27962871835268893,217.80010600897015
-87.64715051,41.86969582,0.0,0.4639201,16-21-42-335,1502140902336,-0.10360086,0.062116235,0.36352465,19.0,-0.062775016,-0.011749557,-0.028257638,-1.1914937371450496,0.411163994460692,217.55495685928003
-87.64715051,41.86969582,0.0,0.4639201,16-21-42-356,1502140902359,-0.06876744,0.06021044,0.3612108,17.0,-0.08194978,-0.040511698,-0.016539728,-1.2021810622054154,0.44683484416406877,217.50315670461467
-87.64715051,41.86969582,0.0,0.4639201,16-21-42-376,1502140902377,-0.06876744,0.06021044,0.3612108,17.0,-0.10112454,-0.037315905,-0.009615509,-1.2021810622054154,0.44683484416406877,217.50315670461467
-87.64715051,41.86969582,0.0,0.4639201,16-21-42-386,1502140902387,-0.07524412,0.019658977,0.3230167,16.0,-0.10112454,-0.037315905,-0.009615509,-1.2345027980183851,0.4739324724377572,217.48613587320298
-87.64715051,41.86969582,0.0,0.4639201,16-21-42-391,1502140902397,-0.11037778,-0.011256618,0.16923712,17.0,-0.11071192,-0.013880086,0.0063634575,-1.2802291002426223,0.49034984596408776,217.48560311844773
-87.64715025,41.86969735,0.0,0.4897066,16-21-42-436,1502140902438,0.053816143,-0.09400255,0.178409,17.0,-0.089406624,-0.041576963,0.0063634575,-1.3264549667716223,0.4882954531277949,217.51694002635975
-87.64715025,41.86969735,0.0,0.4897066,16-21-42-456,1502140902460,0.06718958,-0.14931649,0.08605214,18.0,-0.08035188,-0.021869568,0.007428723,-1.370448428659086,0.4825975812561233,217.51745912073667
-87.64715025,41.86969735,0.0,0.4897066,16-21-42-473,1502140902474,0.06718958,-0.14931649,0.08605214,18.0,-0.06064449,0.012751524,0.0132876765,-1.370448428659086,0.4825975812561233,217.51745912073667
-87.64715025,41.86969735,0.0,0.4897066,16-21-42-485,1502140902486,0.07810414,-0.18845637,0.065112926,19.0,-0.06064449,0.012751524,0.0132876765,-1.4094927781626407,0.4771617645329981,217.50751436530513
-87.64715025,41.86969735,0.0,0.4897066,16-21-42-486,1502140902487,0.07810414,-0.18845637,0.065112926,19.0,-0.06064449,0.012751524,0.0132876765,-1.4094927781626407,0.4771617645329981,217.50751436530513
-87.64715025,41.86969735,0.0,0.4897066,16-21-42-536,1502140902538,0.058563225,-0.28925255,-0.08900606,20.0,-0.02762129,0.08785267,0.032462437,-1.3377526332673522,0.4269866612815555,217.35649888275614
-87.64715025,41.86969735,0.0,0.4897066,16-21-42-553,1502140902554,0.13648604,-0.3061434,0.059694953,20.0,-0.015370748,0.0734716,0.02607085,-1.2440732804277481,0.39234818399905563,217.28288310388174
-87.64715025,41.86969735,0.0,0.4897066,16-21-42-573,1502140902574,0.13648604,-0.3061434,0.059694953,20.0,0.021380875,0.09158109,0.031929806,-1.2440732804277481,0.39234818399905563,217.28288310388174
-87.64715025,41.86969735,0.0,0.4897066,16-21-42-584,1502140902585,0.13462803,-0.27789927,0.2268256,20.0,0.021380875,0.09158109,0.031929806,-1.1531999613982558,0.35991180239365017,217.2002378149246
-87.64715025,41.86969735,0.0,0.4897066,16-21-42-585,1502140902586,0.13462803,-0.27789927,0.2268256,20.0,0.021380875,0.09158109,0.031929806,-1.1531999613982558,0.35991180239365017,217.2002378149246
-87.64715025,41.86969735,0.0,0.4897066,16-21-42-636,1502140902637,0.19549015,-0.1216147,0.32743943,20.0,0.12311363,0.06548212,0.02127716,-0.8746499593671792,0.26582021028503877,216.72213823340203
-87.64715025,41.86969735,0.0,0.4897066,16-21-42-653,1502140902653,0.19549015,-0.1216147,0.32743943,20.0,0.1273747,0.06388422,0.02607085,-0.8746499593671792,0.26582021028503877,216.72213823340203
-87.64715025,41.86969735,0.0,0.4897066,16-21-42-673,1502140902673,0.117053084,-0.09505849,0.29741216,20.0,0.11405888,0.019143114,0.018081367,-0.8016956949860681,0.24352252413100325,216.48459791444733
-87.64715025,41.86969735,0.0,0.4897066,16-21-42-686,1502140902687,0.14743483,-0.060631946,0.31233245,20.0,0.11405888,0.019143114,0.018081367,-0.725957541548795,0.2135959435608866,216.23610197206392
-87.64715025,41.86969735,0.0,0.4897066,16-21-42-686,1502140902688,0.14743483,-0.060631946,0.31233245,20.0,0.11405888,0.019143114,0.018081367,-0.725957541548795,0.2135959435608866,216.23610197206392
-87.64715025,41.86969735,0.0,0.4897066,16-21-42-736,1502140902737,-0.052362304,-0.17539,-0.020789877,23.0,0.04641459,-0.05009908,-0.01920289,-0.7339614560389921,0.1680725459797665,215.61857090882475
-87.64715025,41.86969735,0.0,0.4897066,16-21-42-755,1502140902756,-0.15227984,-0.16715299,-0.09854402,22.0,0.057067234,-0.04370749,-0.030920798,-0.7889510422425002,0.1819533179824439,215.46190002964298
-87.64715025,41.86969735,0.0,0.4897066,16-21-42-774,1502140902779,-0.25148582,-0.16028363,-0.22165953,21.0,0.07517673,-0.004825338,-0.026127107,-0.8448908785142865,0.21198820774371552,215.30007918782704
-87.64715025,41.86969735,0.0,0.4897066,16-21-42-783,1502140902784,-0.25148582,-0.16028363,-0.22165953,21.0,0.07517673,-0.004825338,-0.026127107,-0.8448908785142865,0.21198820774371552,215.30007918782704
-87.64715025,41.86969735,0.0,0.4897066,16-21-42-786,1502140902786,-0.25148582,-0.16028363,-0.22165953,21.0,0.07517673,-0.004825338,-0.026127107,-0.8448908785142865,0.21198820774371552,215.30007918782704
-87.64715025,41.86969735,0.0,0.4897066,16-21-42-836,1502140902837,-0.21586336,-0.18415545,-0.39907432,15.0,0.049610384,0.07826529,-0.017604992,-0.7993382125053559,0.29383217677300977,214.74559077062708
-87.64715025,41.86969735,0.0,0.4897066,16-21-42-855,1502140902855,-0.117623866,-0.2074111,-0.30724427,11.0,0.025641933,0.08359161,-0.018670257,-0.7206159067310218,0.31602359478851344,214.58073732481964
-87.64715025,41.86969735,0.0,0.4897066,16-21-42-879,1502140902880,-0.04026024,-0.1982485,-0.1730488,6.0,0.013391392,0.09424426,-0.01920289,-0.6254033365053085,0.3349948187341941,214.44146976764307
-87.64715025,41.86969735,0.0,0.4897066,16-21-42-885,1502140902885,-0.04026024,-0.1982485,-0.1730488,6.0,0.013391392,0.09424426,-0.01920289,-0.6254033365053085,0.3349948187341941,214.44146976764307
-87.64715025,41.86969735,0.0,0.4897066,16-21-42-885,1502140902886,-0.04026024,-0.1982485,-0.1730488,6.0,0.013391392,0.09424426,-0.01920289,-0.6254033365053085,0.3349948187341941,214.44146976764307
-87.64715025,41.86969735,0.0,0.4897066,16-21-42-936,1502140902937,0.09986595,-0.35339436,0.054544315,340.0,0.014456656,0.07879792,-0.033051327,-0.28809004207386535,0.39728787819242933,214.10252846027038
-87.64715025,41.86969735,0.0,0.4897066,16-21-42-954,1502140902955,0.12734239,-0.32409585,0.06565248,328.0,0.02937036,0.066014744,-0.044769235,-0.18887983683213766,0.42925129587823785,213.98705728216214
-87.64715025,41.86969735,0.0,0.4897066,16-21-42-973,1502140902975,0.111440234,-0.26059756,0.007385621,317.0,0.035761945,0.029263126,-0.06607452,-0.10772666406415347,0.4735381357348947,213.86155938635233
-87.64715025,41.86969735,0.0,0.4897066,16-21-42-985,1502140902985,0.111440234,-0.26059756,0.007385621,317.0,0.035761945,0.029263126,-0.06607452,-0.10772666406415347,0.4735381357348947,213.86155938635233
-87.64715025,41.86969735,0.0,0.4897066,16-21-42-987,1502140902988,0.111440234,-0.26059756,0.007385621,317.0,0.035761945,0.029263126,-0.06607452,-0.10772666406415347,0.4735381357348947,213.86155938635233
-87.64715025,41.86969735,0.0,0.4897066,16-21-43-038,1502140903039,0.029687462,-0.23525108,-0.180509,306.0,0.02937036,0.008490467,-0.11347879,-0.02672140924790904,0.7361183550736881,213.45692531954242
-87.64715025,41.86969735,0.0,0.4897066,16-21-43-055,1502140903056,0.030376142,-0.16978869,-0.08720566,305.0,0.016587187,-0.008021131,-0.1220009,-0.017705557875965554,0.8578286975453188,213.32944666887332
-87.64715025,41.86969735,0.0,0.4897066,16-21-43-074,1502140903075,0.007120001,-0.16527589,-0.20991243,304.0,-0.037741303,-0.0389138,-0.10921773,-0.019575322161256545,0.9942147153049267,213.20459081084547
-87.64715025,41.86969735,0.0,0.4897066,16-21-43-087,1502140903088,0.007120001,-0.16527589,-0.20991243,304.0,-0.037741303,-0.0389138,-0.10921773,-0.019575322161256545,0.9942147153049267,213.20459081084547
-87.64715025,41.86969735,0.0,0.4897066,16-21-43-085,1502140903089,0.007120001,-0.16527589,-0.20991243,304.0,-0.037741303,-0.0389138,-0.10921773,-0.019575322161256545,0.9942147153049267,213.20459081084547
-87.64715025,41.86969735,0.0,0.4897066,16-21-43-143,1502140903144,0.0080972565,-0.28692648,-0.058482185,309.0,-0.16717093,-0.011749557,0.0031676646,-0.13268593619952546,1.2640631096942598,213.209071414941
-87.64715025,41.86969735,0.0,0.4897066,16-21-43-161,1502140903162,0.09989047,-0.21942459,0.25840226,310.0,-0.14799617,-0.033587478,0.011157148,-0.14257607679813036,1.2689006978956272,213.3072212333141
-87.64715025,41.86969735,0.0,0.4897066,16-21-43-176,1502140903177,0.17035061,-0.10290783,0.3240209,311.0,-0.1272235,-0.028261155,0.011157148,-0.16713923798228128,1.2589344914012266,213.3881862957354
-87.64715025,41.86969735,0.0,0.4897066,16-21-43-185,1502140903185,0.17035061,-0.10290783,0.3240209,311.0,-0.1272235,-0.028261155,0.011157148,-0.16713923798228128,1.2589344914012266,213.3881862957354
-87.64715025,41.86969735,0.0,0.4897066,16-21-43-188,1502140903192,0.17035061,-0.10290783,0.3240209,311.0,-0.114440344,0.015414686,0.01435294,-0.16713923798228128,1.2589344914012266,213.3881862957354
-87.64715025,41.86969735,0.0,0.4897066,16-21-43-240,1502140903241,0.11771566,0.27803543,0.120076634,311.0,-0.09100453,0.066014744,0.012755044,-0.14989123607964047,1.2193908977580261,213.498247964021
-87.64715025,41.86969735,0.0,0.4897066,16-21-43-257,1502140903257,0.0719132,0.29581282,0.33899343,307.0,-0.083547674,0.050568413,0.009026619,-0.07683708685202453,1.2110086548208336,213.49570713364974
-87.64715025,41.86969735,0.0,0.4897066,16-21-43-273,1502140903274,0.13279949,0.3078276,0.7679766,303.0,-0.058513958,-0.012814822,-0.004821819,0.0018492737177809523,1.2006541947608003,213.50125324725582
-87.64715025,41.86969735,0.0,0.4897066,16-21-43-285,1502140903285,0.13279949,0.3078276,0.7679766,303.0,-0.058513958,-0.012814822,-0.004821819,0.0018492737177809523,1.2006541947608003,213.50125324725582
-87.64715025,41.86969735,0.0,0.4897066,16-21-43-290,1502140903290,0.13279949,0.3078276,0.7679766,303.0,-0.058513958,-0.012814822,-0.004821819,0.0018492737177809523,1.2006541947608003,213.50125324725582
-87.64715025,41.86969735,0.0,0.4897066,16-21-43-340,1502140903341,0.15598631,0.17409174,1.2396408,302.0,0.01765245,-0.1379834,-0.044236604,0.04279028471153694,1.3367572399175287,213.33570312215303
-87.64715025,41.86969735,0.0,0.4897066,16-21-43-357,1502140903357,0.10311378,0.21082473,1.2353469,302.0,-0.019099174,-0.154495,-0.0026912899,0.04119970440857022,1.4536359706033157,213.21889322696748
-87.64715025,41.86969735,0.0,0.4897066,16-21-43-374,1502140903375,0.10311378,0.21082473,1.2353469,302.0,0.016054554,-0.22160666,0.0063634575,0.04119970440857022,1.4536359706033157,213.21889322696748
-87.64715025,41.86969735,0.0,0.4897066,16-21-43-385,1502140903386,0.20588158,0.27290317,1.457293,301.0,0.016054554,-0.22160666,0.0063634575,0.07080859113584202,1.5460415998844184,213.1334748812073
-87.64715025,41.86969735,0.0,0.4897066,16-21-43-388,1502140903391,0.20588158,0.27290317,1.457293,301.0,0.016054554,-0.22160666,0.0063634575,0.07080859113584202,1.5460415998844184,213.1334748812073
-87.64714875,41.8696978,0.18,0.6221741,16-21-43-444,1502140903444,0.105925925,0.514982,1.183632,297.0,0.16945264,-0.1960403,0.09531304,0.1820871736819203,1.883696803980759,212.67172677255775
-87.64714875,41.8696978,0.18,0.6221741,16-21-43-460,1502140903460,-0.030252967,0.44328025,0.91591734,302.0,0.16412632,-0.1576908,0.13579309,0.00230860393946431,1.821833005903603,212.39924320580926
-87.64714875,41.8696978,0.18,0.6221741,16-21-43-475,1502140903476,-0.18420488,0.40598375,0.6069677,309.0,0.13749471,-0.09537282,0.16721839,-0.20011128250943025,1.6859767013306413,212.11912348756871
-87.64714875,41.8696978,0.18,0.6221741,16-21-43-489,1502140903490,-0.18420488,0.40598375,0.6069677,309.0,0.13749471,-0.09537282,0.16721839,-0.20011128250943025,1.6859767013306413,212.11912348756871
-87.64714875,41.8696978,0.18,0.6221741,16-21-43-486,1502140903487,-0.18420488,0.40598375,0.6069677,309.0,0.13749471,-0.09537282,0.16721839,-0.20011128250943025,1.6859767013306413,212.11912348756871
-87.64714875,41.8696978,0.18,0.6221741,16-21-43-543,1502140903545,-0.07709264,0.24376874,0.27067155,321.0,-0.011642322,0.058557898,0.14964153,-0.39014939669484044,1.1046654909297913,211.45857589293678
-87.64714875,41.8696978,0.18,0.6221741,16-21-43-558,1502140903558,-0.0052176006,0.16033992,0.17157246,321.0,-0.062775016,0.08252635,0.14165203,-0.3352113837556511,0.9251658783860348,211.3514238852376
-87.64714875,41.8696978,0.18,0.6221741,16-21-43-578,1502140903579,0.033693105,0.059046566,0.13910127,320.0,-0.08780873,0.10329901,0.12407518,-0.251848658131381,0.7600264717679657,211.30873520292502
-87.64714875,41.8696978,0.18,0.6221741,16-21-43-586,1502140903587,0.033693105,0.059046566,0.13910127,320.0,-0.08780873,0.10329901,0.12407518,-0.251848658131381,0.7600264717679657,211.30873520292502
-87.64714875,41.8696978,0.18,0.6221741,16-21-43-590,1502140903591,0.033693105,0.059046566,0.13910127,320.0,-0.08780873,0.10329901,0.12407518,-0.251848658131381,0.7600264717679657,211.30873520292502
-87.64714875,41.8696978,0.18,0.6221741,16-21-43-643,1502140903644,0.21684235,-0.19814317,0.57961875,286.0,0.0064671733,0.04737262,0.07560565,0.0997993624184942,0.3639359577535513,211.2962359567439
-87.64714875,41.8696978,0.18,0.6221741,16-21-43-663,1502140903664,0.1441231,-0.13562165,0.6153622,268.0,0.05866513,5.0098426E-4,0.054300357,0.17446891141577767,0.270848296731226,211.218221536044
-87.64714875,41.8696978,0.18,0.6221741,16-21-43-675,1502140903676,0.03818448,-0.039387945,0.53340375,256.0,0.09488412,-0.035185374,0.046310876,0.19881183901983535,0.19853298854284163,211.08082545070005
-87.64714875,41.8696978,0.18,0.6221741,16-21-43-686,1502140903687,0.03818448,-0.039387945,0.53340375,256.0,0.09488412,-0.035185374,0.046310876,0.19881183901983535,0.19853298854284163,211.08082545070005
-87.64714875,41.8696978,0.18,0.6221741,16-21-43-690,1502140903690,0.03818448,-0.039387945,0.53340375,256.0,0.09488412,-0.035185374,0.046310876,0.19881183901983535,0.19853298854284163,211.08082545070005
-87.64714875,41.8696978,0.18,0.6221741,16-21-43-745,1502140903745,-0.26735386,0.25376624,-0.18032916,234.0,-0.055850796,0.038850505,0.04790877,0.12122143699723262,0.052249363000277355,210.55996888497322
-87.64714875,41.8696978,0.18,0.6221741,16-21-43-760,1502140903761,-0.17625558,0.33070385,-0.07713841,210.0,-0.10325506,0.017545216,0.03086454,0.15233132116062753,-0.0010313622123864785,210.50192593740644
-87.64714875,41.8696978,0.18,0.6221741,16-21-43-778,1502140903779,-0.17625558,0.33070385,-0.07713841,210.0,-0.10325506,0.017545216,0.03086454,0.15233132116062753,-0.0010313622123864785,210.50192593740644
-87.64714875,41.8696978,0.18,0.6221741,16-21-43-787,1502140903788,-0.09652543,0.3290776,-0.033152446,197.0,-0.15119196,0.017012583,0.011157148,0.18167992365265828,-0.04493945976277699,210.5104773342473
-87.64714875,41.8696978,0.18,0.6221741,16-21-43-790,1502140903791,-0.09652543,0.3290776,-0.033152446,197.0,-0.15119196,0.017012583,0.011157148,0.18167992365265828,-0.04493945976277699,210.5104773342473
-87.64714875,41.8696978,0.18,0.6221741,16-21-43-843,1502140903844,0.069874495,0.21364677,0.078849025,203.0,-0.23108679,-0.0112169245,-0.03624712,0.23376471844756735,-0.03376190854690401,210.8297476968104
-87.64714875,41.8696978,0.18,0.6221741,16-21-43-860,1502140903861,0.053573586,0.21710971,0.16626209,213.0,-0.23002152,-0.03838117,-0.03145343,0.22883414896003795,0.007036858254548506,210.9986582749848
-87.64714875,41.8696978,0.18,0.6221741,16-21-43-875,1502140903875,0.017826427,0.28505304,0.24172479,224.0,-0.21191204,-0.046903286,-0.018670257,0.19729125481564802,0.04537834610769659,211.17397557060067
-87.64714875,41.8696978,0.18,0.6221741,16-21-43-887,1502140903888,0.017826427,0.28505304,0.24172479,224.0,-0.21191204,-0.046903286,-0.018670257,0.19729125481564802,0.04537834610769659,211.17397557060067
-87.64714875,41.8696978,0.18,0.6221741,16-21-43-891,1502140903892,0.017826427,0.28505304,0.24172479,224.0,-0.21191204,-0.046903286,-0.018670257,0.19729125481564802,0.04537834610769659,211.17397557060067
-87.64714875,41.8696978,0.18,0.6221741,16-21-43-944,1502140903944,-0.0015497794,0.59522235,0.08779704,312.0,-0.19167201,-0.08045912,0.013820309,-0.01692179366870659,0.0931006543900042,211.6018322805886
-87.64714875,41.8696978,0.18,0.6221741,16-21-43-960,1502140903960,-0.043485023,0.7255547,0.02168918,354.0,-0.19753096,-0.08045912,0.009559251,-0.11386787124185441,0.08705437616959585,211.73049938417333
-87.64714875,41.8696978,0.18,0.6221741,16-21-43-975,1502140903976,-0.043485023,0.7255547,0.02168918,354.0,-0.23374996,-0.087915964,-0.0058870832,-0.11386787124185441,0.08705437616959585,211.73049938417333
-87.64714875,41.8696978,0.18,0.6221741,16-21-43-988,1502140903989,-0.068938255,0.78458494,-0.008437249,10.0,-0.23374996,-0.087915964,-0.0058870832,-0.20235417255855964,0.07923412306494199,211.86090135580721
-87.64714875,41.8696978,0.18,0.6221741,16-21-43-990,1502140903991,-0.068938255,0.78458494,-0.008437249,10.0,-0.23374996,-0.087915964,-0.0058870832,-0.20235417255855964,0.07923412306494199,211.86090135580721
-87.64714875,41.8696978,0.18,0.6221741,16-21-44-044,1502140904044,-0.20046216,0.7026243,0.11646854,16.0,-0.2790237,-0.06980647,-0.05542188,-0.4567489971464745,0.13812802282286535,212.45373445500763
-87.64714875,41.8696978,0.18,0.6221741,16-21-44-112,1502140904112,-0.17449336,0.6454859,0.1294063,12.0,-0.30831847,-0.06288225,-0.086314544,-0.5216816845950817,0.19770669573582875,212.68123439588243
-87.64714875,41.8696978,0.18,0.6221741,16-21-44-123,1502140904124,0.24643284,0.40838888,-0.0800242,353.0,-0.17942147,0.14644222,-0.19443889,-0.640543357935141,0.5428201062200662,213.42058871315797
-87.64714875,41.8696978,0.18,0.6221741,16-21-44-125,1502140904126,0.24643284,0.40838888,-0.0800242,353.0,-0.17942147,0.14644222,-0.19443889,-0.640543357935141,0.5428201062200662,213.42058871315797
-87.64714875,41.8696978,0.18,0.6221741,16-21-44-125,1502140904126,0.24643284,0.40838888,-0.0800242,353.0,-0.17942147,0.14644222,-0.19443889,-0.640543357935141,0.5428201062200662,213.42058871315797
-87.64714875,41.8696978,0.18,0.6221741,16-21-44-144,1502140904145,0.4781304,0.44771722,0.36621037,338.0,-0.052655004,0.17307383,-0.23065789,-0.5152593324237127,0.749058735425659,213.57611212055915
-87.64714875,41.8696978,0.18,0.6221741,16-21-44-162,1502140904162,0.59970146,0.47438982,0.9317803,321.0,0.026174566,0.058025263,-0.23918,-0.31564940180761725,0.999163614245424,213.5971217824461
-87.64714875,41.8696978,0.18,0.6221741,16-21-44-176,1502140904177,0.41897407,0.27299747,1.0847362,312.0,0.040555637,-0.035185374,-0.19603679,-0.18904632269315672,1.2745092436995595,213.50184064352442
-87.64714875,41.8696978,0.18,0.6221741,16-21-44-187,1502140904188,0.41897407,0.27299747,1.0847362,312.0,0.040555637,-0.035185374,-0.19603679,-0.18904632269315672,1.2745092436995595,213.50184064352442
-87.64714875,41.8696978,0.18,0.6221741,16-21-44-191,1502140904192,0.41897407,0.27299747,1.0847362,312.0,0.040555637,-0.035185374,-0.19603679,-0.18904632269315672,1.2745092436995595,213.50184064352442
-87.64714875,41.8696978,0.18,0.6221741,16-21-44-244,1502140904244,-0.2628131,-0.40329897,0.782256,312.0,-0.012707587,-0.111884415,-0.017072361,-0.26681205513814515,1.8015125527925804,213.13902099481336
-87.64714875,41.8696978,0.18,0.6221741,16-21-44-263,1502140904263,-0.2358493,-0.4792608,0.64220047,314.0,-0.04626342,-0.09856861,0.013820309,-0.3642453439786117,1.8393424092843422,213.0588072532007
-87.64714875,41.8696978,0.18,0.6221741,16-21-44-277,1502140904278,-0.2358493,-0.4792608,0.64220047,314.0,-0.04626342,-0.09856861,0.013820309,-0.3642453439786117,1.8393424092843422,213.0588072532007
-87.64714875,41.8696978,0.18,0.6221741,16-21-44-287,1502140904288,-0.19068554,-0.54776865,0.20505646,318.0,-0.13468036,-0.061284356,0.0351256,-0.4890064864925638,1.8359875057413966,213.0043706455157
-87.64714875,41.8696978,0.18,0.6221741,16-21-44-291,1502140904291,-0.19068554,-0.54776865,0.20505646,318.0,-0.13468036,-0.061284356,0.0351256,-0.4890064864925638,1.8359875057413966,213.0043706455157
-87.64714875,41.8696978,0.18,0.6221741,16-21-44-345,1502140904346,0.055224262,-1.0799564,0.26618624,327.0,-0.2444026,0.005827307,0.042049818,-0.7018937712466351,1.6060809904012403,213.3389406318196
-87.64714875,41.8696978,0.18,0.6221741,16-21-44-361,1502140904362,0.04606851,-1.1771446,0.27747253,331.0,-0.19433516,0.03778524,0.043647714,-0.7063900634329133,1.3407376393780595,213.5300220040399
-87.64714875,41.8696978,0.18,0.6221741,16-21-44-377,1502140904378,0.012582978,-1.1509082,0.43938693,335.0,-0.1288214,0.05163368,0.040984552,-0.5731699984361649,0.9258913725419371,213.681925411181
-87.64714875,41.8696978,0.18,0.6221741,16-21-44-388,1502140904389,0.012582978,-1.1509082,0.43938693,335.0,-0.1288214,0.05163368,0.040984552,-0.5731699984361649,0.9258913725419371,213.681925411181
-87.64714875,41.8696978,0.18,0.6221741,16-21-44-390,1502140904391,0.012582978,-1.1509082,0.43938693,335.0,-0.1288214,0.05163368,0.040984552,-0.5731699984361649,0.9258913725419371,213.681925411181
-87.64714587,41.86969715,0.30149627,0.8468536,16-21-44-444,1502140904444,0.011316638,-1.0329229,0.27090442,343.0,0.07251357,0.048437882,-0.04317134,-0.24669013108030244,0.3066968914355817,213.69420609130867
-87.64714587,41.86969715,0.30149627,0.8468536,16-21-44-463,1502140904463,-0.06582321,-0.978064,0.14189655,336.0,0.1076673,0.05269894,-0.075661905,-0.18966872368127413,0.298130473514637,213.54120985390037
-87.64714587,41.86969715,0.30149627,0.8468536,16-21-44-477,1502140904478,-0.09356197,-0.9238493,0.2563689,323.0,0.14921261,0.022338906,-0.08311875,-0.12467580516996656,0.3402435523070844,213.34212349997284
-87.64714587,41.86969715,0.30149627,0.8468536,16-21-44-490,1502140904490,-0.09356197,-0.9238493,0.2563689,323.0,0.14921261,0.022338906,-0.08311875,-0.12467580516996656,0.3402435523070844,213.34212349997284
-87.64714587,41.86969715,0.30149627,0.8468536,16-21-44-491,1502140904492,-0.09356197,-0.9238493,0.2563689,323.0,0.15933263,0.05216631,-0.056487147,-0.12467580516996656,0.3402435523070844,213.34212349997284
-87.64714587,41.86969715,0.30149627,0.8468536,16-21-44-543,1502140904544,0.012059837,-0.6938903,0.021652978,296.0,0.112460986,0.13365903,0.03832139,0.0611874092461262,0.52447565885244,212.57043506716647
-87.64714587,41.86969715,0.30149627,0.8468536,16-21-44-562,1502140904563,0.16036752,-0.69776416,0.18450283,279.0,0.09222096,0.101168476,0.07400776,0.21601548471351073,0.4978007819357783,212.346281918985
-87.64714587,41.86969715,0.30149627,0.8468536,16-21-44-578,1502140904578,0.30392936,-0.6640915,0.23299615,263.0,0.0730462,0.072938964,0.091584615,0.3439900177885422,0.4261095422621642,212.14419028182266
-87.64714587,41.86969715,0.30149627,0.8468536,16-21-44-588,1502140904588,0.30392936,-0.6640915,0.23299615,263.0,0.0730462,0.072938964,0.091584615,0.3439900177885422,0.4261095422621642,212.14419028182266
-87.64714587,41.86969715,0.30149627,0.8468536,16-21-44-591,1502140904592,0.30392936,-0.6640915,0.23299615,263.0,0.0730462,0.072938964,0.091584615,0.3439900177885422,0.4261095422621642,212.14419028182266
-87.64714587,41.86969715,0.30149627,0.8468536,16-21-44-643,1502140904644,0.37749395,-0.6441148,0.21406178,226.0,-0.005250735,0.005294674,0.036190864,0.536069264638302,0.13451805440310205,211.68637636213504
-87.64714587,41.86969715,0.30149627,0.8468536,16-21-44-662,1502140904663,0.34268215,-0.647622,0.33698934,219.0,0.006999806,-0.026663259,-0.010680774,0.5528108053459436,0.07261684369796323,211.5954119027688
-87.64714587,41.86969715,0.30149627,0.8468536,16-21-44-678,1502140904679,0.25987706,-0.6809911,0.37579218,218.0,0.004869277,-0.041044332,-0.05062819,0.5375045114985038,0.06143855877036301,211.50659212280198
-87.64714587,41.86969715,0.30149627,0.8468536,16-21-44-689,1502140904690,0.25987706,-0.6809911,0.37579218,218.0,0.004869277,-0.041044332,-0.05062819,0.5375045114985038,0.06143855877036301,211.50659212280198
-87.64714587,41.86969715,0.30149627,0.8468536,16-21-44-690,1502140904691,0.25987706,-0.6809911,0.37579218,218.0,0.004869277,-0.041044332,-0.05062819,0.5375045114985038,0.06143855877036301,211.50659212280198
-87.64714587,41.86969715,0.30149627,0.8468536,16-21-44-744,1502140904744,-0.09116835,-0.70475656,0.40521872,238.0,0.013924025,-0.018673776,-0.03145343,0.41444240522101883,0.21116128794668118,211.23129451811542
-87.64714587,41.86969715,0.30149627,0.8468536,16-21-44-761,1502140904762,-0.13091405,-0.66818273,0.56372076,243.0,0.028837727,-0.0021621769,0.0015697678,0.4009131878573987,0.2473860099628504,211.1346336809814
-87.64714587,41.86969715,0.30149627,0.8468536,16-21-44-779,1502140904782,-0.14568308,-0.59896535,0.5804,244.0,0.059197765,0.051101044,0.028734012,0.3926347851399317,0.25468065199642403,211.02291910691667
-87.64714587,41.86969715,0.30149627,0.8468536,16-21-44-790,1502140904790,-0.14568308,-0.59896535,0.5804,244.0,0.059197765,0.051101044,0.028734012,0.3926347851399317,0.25468065199642403,211.02291910691667
-87.64714587,41.86969715,0.30149627,0.8468536,16-21-44-791,1502140904791,-0.14568308,-0.59896535,0.5804,244.0,0.059197765,0.051101044,0.028734012,0.3926347851399317,0.25468065199642403,211.02291910691667
-87.64714587,41.86969715,0.30149627,0.8468536,16-21-44-844,1502140904845,0.12217851,-0.35059637,0.30250993,225.0,0.049610384,0.016479952,0.055898253,0.5420297252670487,0.1433227018517774,210.56062458313355
-87.64714587,41.86969715,0.30149627,0.8468536,16-21-44-863,1502140904864,0.079190776,-0.257254,0.23512067,219.0,0.02457667,0.022871539,0.074540384,0.5683621855907106,0.08560359463109622,210.4114942327955
-87.64714587,41.86969715,0.30149627,0.8468536,16-21-44-881,1502140904881,-0.008217808,-0.2043088,0.19951302,211.0,0.020848244,0.04524209,0.083595134,0.5886266631670509,0.009076093273567133,210.28748531822473
-87.64714587,41.86969715,0.30149627,0.8468536,16-21-44-889,1502140904890,-0.008217808,-0.2043088,0.19951302,211.0,0.020848244,0.04524209,0.083595134,0.5886266631670509,0.009076093273567133,210.28748531822473
-87.64714587,41.86969715,0.30149627,0.8468536,16-21-44-890,1502140904890,-0.008217808,-0.2043088,0.19951302,211.0,0.020848244,0.04524209,0.083595134,0.5886266631670509,0.009076093273567133,210.28748531822473
-87.64714587,41.86969715,0.30149627,0.8468536,16-21-44-947,1502140904948,0.036513504,-0.26689008,0.28645146,192.0,0.00806507,-0.023467464,0.04045192,0.7716246665871762,-0.2566787491329172,210.00636839236535
-87.64714587,41.86969715,0.30149627,0.8468536,16-21-44-961,1502140904962,0.1281274,-0.24424207,0.5300722,188.0,0.03629458,-0.07992648,0.012755044,0.7955667207838923,-0.3166130988108237,209.92232974481752
-87.64714587,41.86969715,0.30149627,0.8468536,16-21-44-983,1502140904983,-0.029006628,-0.28577113,0.36041817,184.0,6.082192E-4,0.019143114,0.02127716,0.7244735762299039,-0.34418742626381144,209.80725471768113
-87.64714587,41.86969715,0.30149627,0.8468536,16-21-44-990,1502140904990,-0.029006628,-0.28577113,0.36041817,184.0,6.082192E-4,0.019143114,0.02127716,0.7244735762299039,-0.34418742626381144,209.80725471768113
-87.64714587,41.86969715,0.30149627,0.8468536,16-21-44-989,1502140904993,-0.029006628,-0.28577113,0.36041817,184.0,6.082192E-4,0.019143114,0.02127716,0.7244735762299039,-0.34418742626381144,209.80725471768113
-87.64714587,41.86969715,0.30149627,0.8468536,16-21-45-045,1502140905049,0.0071604154,0.11036951,0.08424663,186.0,0.095416754,0.010088365,-0.06287873,0.630486971599355,-0.2758788644570726,209.36538245951633
-87.64714587,41.86969715,0.30149627,0.8468536,16-21-45-061,1502140905062,0.04846205,0.18226923,0.14247797,192.0,0.048012488,0.0036967776,-0.030920798,0.6567233823878136,-0.20869352192325707,209.1683861434748
-87.64714587,41.86969715,0.30149627,0.8468536,16-21-45-081,1502140905082,0.07864077,0.23199809,0.057755653,196.0,-0.051057108,-0.011749557,-0.0037565543,0.661892501568191,-0.15541443119937426,209.00474847133967
-87.64714587,41.86969715,0.30149627,0.8468536,16-21-45-090,1502140905091,0.07864077,0.23199809,0.057755653,196.0,-0.051057108,-0.011749557,-0.0037565543,0.661892501568191,-0.15541443119937426,209.00474847133967
-87.64714587,41.86969715,0.30149627,0.8468536,16-21-45-091,1502140905092,0.07864077,0.23199809,0.057755653,196.0,-0.051057108,-0.011749557,-0.0037565543,0.661892501568191,-0.15541443119937426,209.00474847133967
-87.64714587,41.86969715,0.30149627,0.8468536,16-21-45-144,1502140905145,-0.022690637,0.10622958,0.2806844,194.0,-0.14107195,0.014882055,0.042049818,0.6616227090959754,-0.18236485022015042,209.03257466201828
-87.64714587,41.86969715,0.30149627,0.8468536,16-21-45-162,1502140905162,0.032416143,0.080912516,0.40024874,191.0,-0.11230981,0.017545216,0.040984552,0.6740527462508995,-0.22657535737674714,209.11863504556044
-87.64714587,41.86969715,0.30149627,0.8468536,16-21-45-180,1502140905181,0.021496575,0.09450821,0.4095816,187.0,-0.067568704,-0.006423235,0.03086454,0.6940290752216298,-0.27694802918601763,209.18151376705958
-87.64714587,41.86969715,0.30149627,0.8468536,16-21-45-190,1502140905191,0.021496575,0.09450821,0.4095816,187.0,-0.067568704,-0.006423235,0.03086454,0.6940290752216298,-0.27694802918601763,209.18151376705958
-87.64714587,41.86969715,0.30149627,0.8468536,16-21-45-192,1502140905192,0.021496575,0.09450821,0.4095816,187.0,-0.067568704,-0.006423235,0.03086454,0.6940290752216298,-0.27694802918601763,209.18151376705958
-87.64714587,41.86969715,0.30149627,0.8468536,16-21-45-244,1502140905245,-0.013982509,0.24120805,0.03263619,180.0,-0.08088451,-0.01760851,0.025538217,0.6468617098042259,-0.3672408088164854,209.1218998759837
-87.64714587,41.86969715,0.30149627,0.8468536,16-21-45-263,1502140905264,-0.0824806,0.18328248,-0.12653308,177.0,-0.115505606,0.01381679,0.028201379,0.611057377927343,-0.3890829266889664,209.11446863016673
-87.64714587,41.86969715,0.30149627,0.8468536,16-21-45-281,1502140905282,-0.06855975,0.1449979,-0.12339002,175.0,-0.12189719,0.027132597,0.018613998,0.6134737174287938,-0.42366553515848965,209.14769067028968
-87.64714587,41.86969715,0.30149627,0.8468536,16-21-45-290,1502140905290,-0.06855975,0.1449979,-0.12339002,175.0,-0.12189719,0.027132597,0.018613998,0.6134737174287938,-0.42366553515848965,209.14769067028968
-87.64714587,41.86969715,0.30149627,0.8468536,16-21-45-291,1502140905292,-0.06855975,0.1449979,-0.12339002,175.0,-0.12189719,0.027132597,0.018613998,0.6134737174287938,-0.42366553515848965,209.14769067028968
-87.64714587,41.86969715,0.30149627,0.8468536,16-21-45-344,1502140905345,0.12882239,0.18752688,0.31407997,173.0,-0.08780873,-0.071937,-0.03145343,0.6520427284547979,-0.4754139831574153,209.29482660539009
-87.64714587,41.86969715,0.30149627,0.8468536,16-21-45-363,1502140905364,0.103403635,0.25377902,0.28405666,172.0,-0.07928661,-0.040511698,-0.030388165,0.5927856080413539,-0.45605359851160254,209.3183087957566
-87.64714587,41.86969715,0.30149627,0.8468536,16-21-45-384,1502140905385,0.047884893,0.20762369,0.25425282,171.0,-0.092602424,-0.09270966,-0.064476624,0.5288408967840186,-0.4173050548960475,209.32188781488168
-87.64714587,41.86969715,0.30149627,0.8468536,16-21-45-390,1502140905391,0.047884893,0.20762369,0.25425282,171.0,-0.092602424,-0.09270966,-0.064476624,0.5288408967840186,-0.4173050548960475,209.32188781488168
-87.64714587,41.86969715,0.30149627,0.8468536,16-21-45-392,1502140905393,0.047884893,0.20762369,0.25425282,171.0,-0.092602424,-0.09270966,-0.064476624,0.5288408967840186,-0.4173050548960475,209.32188781488168
-87.64714192,41.86970186,0.0,1.3155226,16-21-45-446,1502140905446,-0.11346166,0.3090769,0.23312153,163.0,-0.07129713,-0.05329487,-5.607611E-4,0.2521047902252565,-0.2607134432612642,209.35610706262344
