Longitude,Latitude,Speed,Distance,Time,Time in epoch, Acc X,Acc Y,Acc Z,Heading,gyro_x,gyro_y,gyro_z,pitch_deg,roll_deg,azimuth_deg
-87.64716512,41.8697197,0,9815988,14-53-52-681,1500580432682,0.23092061,-0.24163854,0.03609757,302,0.0050404766,0.050617807,0.006507878,-0.501256911,0.5226272389,168.0764208315
-87.6471702,41.86972187,0,0,14-53-52-790,1500580432790,0.17129847,-0.18744592,0.1742715,297,0.038596306,-0.01329806,-0.02651532,-0.6986876378,0.8783407695,168.7031043482
-87.6471702,41.86972187,0,0,14-53-52-880,1500580432887,0.11213059,-0.12917425,-0.048524227,297,0.037531044,0.006941964,0.001181556,-0.7450887947,0.9496140069,168.55008079
-87.6471702,41.86972187,0,0,14-53-52-979,1500580432980,0.21985567,-0.27741542,0.17301804,297,-0.026384825,-0.03194019,0.007573142,-0.7447677224,0.9535813863,168.603192341
-87.6471702,41.86972187,0,0,14-53-53-080,1500580433080,0.1450422,-0.20774344,-0.025218675,300,0.016758386,0.009605125,-0.0030795017,-0.8064363265,0.9214483345,168.580516113
-87.6471702,41.86972187,0,0,14-53-53-180,1500580433181,0.20753823,-0.21755466,0.045640323,302,-0.029047985,-0.014363325,0.024617374,-0.8402321559,0.8836953176,168.5633723381
-87.64717221,41.86972059,0,0.21922095,14-53-53-280,1500580433281,0.18895558,-0.19078869,0.095941156,308,0.019954178,-0.012232796,-0.0046773986,-0.9216542007,0.7861445282,168.6544460805
-87.64717221,41.86972059,0,0.21922095,14-53-53-398,1500580433399,0.20475829,-0.20608379,0.115809806,312,0.006105741,-0.017559119,0.008638408,-1.0137486294,0.7659690565,168.6359635886
-87.64717221,41.86972059,0,0.21922095,14-53-53-481,1500580433482,0.16372141,-0.23283188,0.04748307,314,-0.021591134,-0.001580152,0.012366833,-1.0582409086,0.7405821505,168.6230272104
-87.64717221,41.86972059,0,0.21922095,14-53-53-582,1500580433582,0.1683135,-0.2517469,0.04286421,318,-0.013601652,-0.021820176,0.007573142,-1.1773342214,0.6876424215,168.6865479696
-87.64717221,41.86972059,0,0.21922095,14-53-53-684,1500580433685,0.16208288,-0.22758117,-0.1023248,321,0.0013120507,0.026116723,0.013964729,-1.2381774398,0.6429988643,168.7158904623
-87.64717221,41.86972059,0,0.21922095,14-53-53-782,1500580433783,0.16943985,-0.2663409,0.04481878,323,-0.03011325,-0.01968965,0.008638408,-1.226402834,0.5823145545,168.8037676762
-87.64717221,41.86972059,0,0.21922095,14-53-53-883,1500580433884,0.1841005,-0.21298024,0.06700582,326,-0.0008184781,0.020790402,0.011301569,-1.2118137634,0.516109104,168.9069854949
-87.64717221,41.86972059,0,0.21922095,14-53-53-985,1500580433986,0.25888976,-0.14437485,0.0651955,326,0.0077036372,0.0016156414,-0.0041447664,-1.1154027617,0.4715894507,168.8959479092
-87.64717221,41.86972059,0,0.21922095,14-53-54-084,1500580434085,0.14641593,-0.22086641,0.036662754,324,-0.0045469035,0.011735654,0.010236304,-1.1136300075,0.5144105213,168.8253237532
-87.64717221,41.86972059,0,0.21922095,14-53-54-185,1500580434187,0.19677387,-0.23129444,0.13015912,327,0.0071710055,-0.014895958,0.0001162916,-1.1586873781,0.4545237962,168.8203377151
-87.64717036,41.86971599,0,0.6532311,14-53-54-299,1500580434299,0.1735812,-0.19362554,0.11501079,327,-0.014666916,0.000550377,0.0038447173,-1.2011084023,0.491143055,168.7467765777
-87.64717036,41.86971599,0,0.6532311,14-53-54-391,1500580434392,0.2317269,-0.21583754,0.19377927,328,0.003975212,-0.022885442,-0.0004163406,-1.2437863058,0.4650097908,168.8731487378
-87.64717036,41.86971599,0,0.6532311,14-53-54-491,1500580434492,0.18446293,-0.15608485,0.02479071,330,-0.010938491,-0.021287546,0.0054426137,-1.3660853252,0.4736445906,168.8678348506
-87.64717036,41.86971599,0,0.6532311,14-53-54-593,1500580434598,0.14151706,-0.25474393,0.03478426,332,0.0071710055,-0.029277027,-0.0004163406,-1.5142892244,0.4535459586,168.9112338726
-87.64717036,41.86971599,0,0.6532311,14-53-54-690,1500580434690,0.12051647,-0.26739812,0.012231631,335,-0.012536387,-0.0042433133,0.006507878,-1.5861519925,0.4069944575,168.9409178747
-87.64717036,41.86971599,0,0.6532311,14-53-54-791,1500580434792,0.19151995,-0.26689777,-0.013841189,336,-0.031711146,0.01812724,0.0070405104,-1.5319856042,0.3631926678,169.0935726027
-87.64717036,41.86971599,0,0.6532311,14-53-54-892,1500580434892,0.24063468,-0.22149971,0.117790416,332,-0.0066774325,0.026649356,-0.024917422,-1.3368302376,0.410884597,169.1636503435
-87.64717036,41.86971599,0,0.6532311,14-53-54-992,1500580434993,0.17096472,-0.239281,-0.040883955,327,-0.035439573,0.0074745957,-0.0020142372,-1.254139912,0.5134834832,169.2742037854
-87.64717036,41.86971599,0,0.6532311,14-53-55-093,1500580435094,0.20960209,-0.19039802,0.0048553883,323,-0.008807962,0.019192504,-0.016927939,-1.1840805273,0.5934775916,169.3086552596
-87.64717036,41.86971599,0,0.6532311,14-53-55-192,1500580435193,0.21769808,-0.18597703,0.031106392,320,0.01569312,0.018659871,-0.0137321465,-1.1483204316,0.6560680044,169.3700176791
-87.64716944,41.86970999,0,1.3210282,14-53-55-292,1500580435293,0.19613391,-0.19048375,0.07921047,315,0.009301534,-0.005308577,-0.005210031,-1.1181182956,0.7602680363,169.2885608431
-87.64716944,41.86970999,0,1.3210282,14-53-55-393,1500580435393,0.13391744,-0.22913814,-0.04426298,317,-0.007742697,-0.014895958,0.0049099815,-1.1973442211,0.7615413864,169.2725372193
-87.64716944,41.86970999,0,1.3210282,14-53-55-495,1500580435496,0.17169487,-0.19809361,-0.011791464,314,0.025280502,0.011735654,-0.017993204,-1.1513844117,0.816755355,169.1168772081
-87.64716944,41.86970999,0,1.3210282,14-53-55-594,1500580435594,0.2125499,-0.2601643,0.039066557,313,0.003975212,-0.01329806,0.007573142,-1.1863827279,0.8535493706,169.1074788678
-87.64716944,41.86970999,0,1.3210282,14-53-55-693,1500580435695,0.19740215,-0.2162692,0.043183222,314,0.010899431,-0.0021127842,-0.003612134,-1.1861846524,0.8373172659,169.0350652022
-87.64716944,41.86970999,0,1.3210282,14-53-55-793,1500580435797,0.24151796,-0.20371152,0.09466881,314,0.028476294,-0.005308577,-0.015330043,-1.1888728655,0.835415165,169.0043703321
-87.64716944,41.86970999,0,1.3210282,14-53-55-893,1500580435893,0.22211392,-0.13206722,0.070558324,311,0.04711842,0.010670389,-0.016927939,-1.173600776,0.9061943876,168.8149691864
-87.64716944,41.86970999,0,1.3210282,14-53-55-993,1500580436004,0.19088526,-0.16475773,0.11222984,308,0.001844683,-0.042060204,-0.024384791,-1.1917080343,1.0107292589,168.6241883425
-87.64716944,41.86970999,0,1.3210282,14-53-56-094,1500580436094,0.2567585,-0.19711865,0.207241,307,0.031139456,-0.0271465,-0.011601618,-1.2289579651,1.0987953702,168.4946606351
-87.64716944,41.86970999,0,1.3210282,14-53-56-196,1500580436197,0.17222555,-0.2158035,-0.019699235,313,-0.084441744,-0.11023713,0.046455294,-1.5465597338,1.0922372147,168.4100755724
-87.64716688,41.86970005,0,2.4391866,14-53-56-294,1500580436295,0.1385997,-0.3028506,0.1800983,323,0.0007794186,0.006409331,0.022486845,-1.8104105817,0.8761137009,168.7155352925
-87.64716688,41.86970005,0,2.4391866,14-53-56-395,1500580436396,0.10879704,-0.26200366,-0.08946769,325,0.04392263,-0.0106349,-0.044092186,-1.8978248368,0.843162307,168.6086291716
-87.64716688,41.86970005,0,2.4391866,14-53-56-496,1500580436497,0.3207235,-0.10473396,0.17369168,321,0.050314218,0.000550377,-0.027580583,-1.8368705211,0.9654032698,168.3491366246
-87.64716688,41.86970005,0,2.4391866,14-53-56-598,1500580436598,0.3070594,-0.20801964,0.21416464,314,0.023682605,-0.054843374,-0.058473255,-1.7088217631,1.163416537,168.0094713172
-87.64716688,41.86970005,0,2.4391866,14-53-56-697,1500580436697,0.11240319,-0.23923519,0.041677512,313,0.015160489,-0.023950707,0.0027794528,-1.9555896676,1.3497980988,167.9004888188
-87.64716688,41.86970005,0,2.4391866,14-53-56-797,1500580436801,0.15693668,-0.2764613,-0.0451124,317,-0.028515354,-0.016493855,0.044324767,-2.0951389701,1.2715863496,167.8430742487
-87.64716688,41.86970005,0,2.4391866,14-53-56-897,1500580436898,0.20919555,-0.26612014,0.050602596,322,0.0050404766,0.014398815,0.017160524,-2.1328093844,1.0539243358,167.9491470865
-87.64716688,41.86970005,0,2.4391866,14-53-56-997,1500580437001,0.22493835,-0.21746129,-0.038960356,323,-0.045559585,0.01812724,0.008638408,-2.121265084,1.0031405986,167.9963027125
-87.64716688,41.86970005,0,2.4391866,14-53-57-096,1500580437097,0.1445131,-0.1839654,-0.0025675234,323,-0.0018837426,0.03943253,-0.0030795017,-2.1140201743,0.9701904854,168.0951218894
-87.64716688,41.86970005,0,2.4391866,14-53-57-197,1500580437198,0.19559632,-0.16007455,-0.02350081,322,-0.03970063,0.06127045,0.005975246,-2.0231878364,0.9791731446,168.100271852
-87.64716688,41.86970005,0,2.4391866,14-53-57-296,1500580437297,0.19559632,-0.16007455,-0.02350081,322,-0.03970063,0.06127045,0.005975246,-2.0231878364,0.9791731446,168.100271852
-87.64716688,41.86970005,0,2.4391866,14-53-57-397,1500580437398,0.19559632,-0.16007455,-0.02350081,322,-0.03970063,0.06127045,0.005975246,-2.0231878364,0.9791731446,168.100271852
-87.64716688,41.86970005,0,2.4391866,14-53-57-497,1500580437498,0.19559632,-0.16007455,-0.02350081,322,-0.03970063,0.06127045,0.005975246,-2.0231878364,0.9791731446,168.100271852
-87.64716688,41.86970005,0,2.4391866,14-53-57-597,1500580437598,0.19559632,-0.16007455,-0.02350081,322,-0.03970063,0.06127045,0.005975246,-2.0231878364,0.9791731446,168.100271852
-87.64716688,41.86970005,0,2.4391866,14-53-57-698,1500580437728,0.18000719,-0.16785927,0.028915795,317,-0.012536387,0.027181987,-0.0009489729,-1.6652296816,0.9926921167,168.2107569921
-87.64716481,41.86969193,0,3.3554296,14-53-57-799,1500580437799,0.14704013,-0.22462772,0.06160652,260,-0.014134284,0.051150437,-0.0030795017,-0.0380612325,1.2151034599,167.8069562083
-87.64716481,41.86969193,0,3.3554296,14-53-57-901,1500580437902,0.1889078,-0.18267591,0.0008584468,243,0.041792102,0.08949996,-0.032374274,0.344089936,1.3178064532,167.6698060098
-87.64716481,41.86969193,0,3.3554296,14-53-58-001,1500580438002,0.20084569,-0.19265206,0.11769352,227,-0.021058502,0.07405362,-0.0004163406,0.8257677362,1.4050550762,167.5891414757
-87.64716481,41.86969193,0,3.3554296,14-53-58-102,1500580438102,0.23843457,-0.21092528,0.20998809,218,0.014627856,0.06393361,-0.01000372,1.2010776665,1.4320370982,167.6484138573
-87.64716481,41.86969193,0,3.3554296,14-53-58-202,1500580438202,0.20327438,-0.18372855,0.18213339,213,-0.010938491,0.04209569,0.005975246,1.4644563776,1.4618372135,167.5623124926
-87.6471641,41.86968767,0,3.8322282,14-53-58-302,1500580438303,0.17496876,-0.20926642,0.14707501,208,0.012497327,0.044226218,0.0001162916,1.6832998008,1.4443930171,167.5186539235
-87.6471641,41.86968767,0,3.8322282,14-53-58-402,1500580438403,0.16158609,-0.23699641,0.15592273,204,0.02208471,0.050085172,0.0038447173,1.9518309292,1.4366214358,167.4622638817
-87.6471641,41.86968767,0,3.8322282,14-53-58-503,1500580438504,0.14923272,-0.17911187,0.023827853,199,0.08600057,0.10707682,-0.03557007,2.4317035851,1.5259346969,167.1068891392
-87.6471641,41.86968767,0,3.8322282,14-53-58-605,1500580438605,0.17300536,-0.23050784,0.1994088,196,-0.005612168,0.045291483,0.011301569,2.9633554783,1.644615637,166.8067979478
-87.6471641,41.86968767,0,3.8322282,14-53-58-703,1500580438704,0.30757305,-0.24388058,0.15148625,192,0.0034425796,0.045291483,-0.009471089,3.2994009989,1.5523038161,166.8577101779
-87.6471641,41.86968767,0,3.8322282,14-53-58-803,1500580438804,0.22357751,-0.26150826,0.10067793,190,-0.015199549,0.043693587,0.021954214,3.6288120579,1.5343811863,166.8381758368
-87.6471641,41.86968767,0,3.8322282,14-53-58-903,1500580438904,0.17309652,-0.26552048,0.049390715,188,-0.018395342,0.07778205,-0.012666881,3.9193772698,1.488586262,166.9485380334
-87.6471641,41.86968767,0,3.8322282,14-53-59-003,1500580439004,0.15385365,-0.19038866,0.06709678,186,-0.019460605,0.07192309,-0.012666881,4.3185885933,1.5200082271,167.0313062658
-87.6471641,41.86968767,0,3.8322282,14-53-59-104,1500580439104,0.26865456,-0.13758199,0.052769113,186,0.016225753,0.070325196,-0.029711112,4.7791076948,1.6200517155,167.0103785662
-87.6471641,41.86968767,0,3.8322282,14-53-59-203,1500580439203,0.20481871,-0.21320072,0.08586008,186,-0.0093405945,0.047422014,0.005975246,5.099088397,1.7408476664,166.8992787091
-87.6471648,41.86968622,0,3.9849696,14-53-59-305,1500580439306,0.16461147,-0.1979136,0.047051355,184,-0.021058502,0.05328097,0.0027794528,5.3791936011,1.6647803832,166.8253760623
-87.6471648,41.86968622,0,3.9849696,14-53-59-404,1500580439404,0.094165124,-0.17435224,-0.0029070666,183,-0.01306902,0.07245573,0.0027794528,5.663769164,1.6224480446,166.8838424816
-87.6471648,41.86968622,0,3.9849696,14-53-59-505,1500580439505,0.13417856,-0.12159786,0.022712877,182,0.009301534,0.1017505,0.012366833,6.0814219983,1.6290473948,166.8807825569
-87.6471648,41.86968622,0,3.9849696,14-53-59-605,1500580439606,0.24778259,-0.22923192,0.053392813,180,-0.0040142713,0.07405362,0.005975246,6.5926898322,1.5365699418,166.8817661041
-87.6471648,41.86968622,0,3.9849696,14-53-59-706,1500580439706,0.17112234,-0.15189323,0.09479899,179,0.0066383732,0.10388103,0.001181556,7.1152197943,1.5049310114,166.8180814203
-87.6471648,41.86968622,0,3.9849696,14-53-59-806,1500580439808,0.22470853,-0.12396541,0.18841887,178,0.01569312,0.0538136,0.006507878,7.5743946291,1.528031565,166.7085661671
-87.6471648,41.86968622,0,3.9849696,14-53-59-907,1500580439909,0.24423537,-0.16146952,0.17188595,177,0.026878398,0.043160953,0.020888949,7.9063307238,1.4616377507,166.5567857034
-87.6471648,41.86968622,0,3.9849696,14-54-00-010,1500580440011,0.15569888,-0.21809,0.19384687,176,0.044987895,0.027181987,-0.01000372,8.1165323568,1.3874657383,166.403174749
-87.6471648,41.86968622,0,3.9849696,14-54-00-111,1500580440112,0.13547447,-0.2000681,0.23015055,176,0.025280502,0.04209569,-0.0014816051,8.3317558864,1.471718683,166.1819312614
-87.6471648,41.86968622,0,3.9849696,14-54-00-211,1500580440212,0.16657355,-0.24431884,0.2064885,176,0.03433525,0.050617807,0.007573142,8.5243740512,1.4827619249,166.0479912518
-87.64716596,41.86968343,0,4.2840457,14-54-00-313,1500580440315,0.14841847,-0.2581995,0.1830154,176,-0.0226564,0.038367264,0.015562626,8.8548527542,1.5184889369,165.878807466
-87.64716596,41.86968343,0,4.2840457,14-54-00-410,1500580440411,0.19716944,-0.20449814,0.20117065,175,-0.048222747,0.03197568,0.007573142,9.0279638987,1.4334294963,166.0155751739
-87.64716596,41.86968343,0,4.2840457,14-54-00-513,1500580440513,0.25343597,-0.219944,0.1650783,175,-0.0018837426,0.005344067,0.012899466,9.186950212,1.3502922203,166.1851141295
-87.64716596,41.86968343,0,4.2840457,14-54-00-611,1500580440612,0.24519786,-0.23269863,0.106569275,174,-0.013601652,0.0074745957,-0.0014816051,9.2384336166,1.2744604719,166.2181449244
-87.64716596,41.86968343,0,4.2840457,14-54-00-716,1500580440717,0.20483395,-0.15970819,0.109545276,174,0.020486811,0.009605125,-0.005210031,9.3178559101,1.285646294,166.2135686976
-87.64716596,41.86968343,0,4.2840457,14-54-00-813,1500580440818,0.17975755,-0.14037964,0.089266695,174,0.026345767,0.022388298,-0.016927939,9.3709520931,1.3505890133,166.13891473
-87.64716596,41.86968343,0,4.2840457,14-54-00-913,1500580440919,0.18521272,-0.14666235,0.13916883,175,-0.008807962,0.024518827,-0.003612134,9.4866264694,1.4302549524,166.0323774393
-87.64716596,41.86968343,0,4.2840457,14-54-01-012,1500580441012,0.18831047,-0.19055033,0.10593189,175,0.0007794186,0.015996711,-0.019058468,9.5938612931,1.4731504614,166.0252057407
-87.64716596,41.86968343,0,4.2840457,14-54-01-112,1500580441115,0.23549391,-0.16522129,0.27367643,175,0.019954178,-0.012232796,0.005975246,9.6537372927,1.5674720655,165.9623543399
-87.64716596,41.86968343,0,4.2840457,14-54-01-215,1500580441215,0.250597,-0.1531763,0.11116296,175,0.0007794186,0.005344067,-0.0046773986,9.5622375173,1.5128830592,165.8997624864
-87.64716596,41.86968343,0,4.2840457,14-54-01-314,1500580441315,0.131058,-0.19511771,0.11786499,176,-0.010405858,-0.010102267,-0.015862675,9.5171113112,1.6473296767,165.8361734252
-87.64716613,41.86968253,0,4.3825684,14-54-01-415,1500580441418,0.14324313,-0.16260652,0.07196317,176,0.040194202,-0.01329806,-0.02172163,9.4664099632,1.7428346111,165.79302029
-87.64716613,41.86968253,0,4.3825684,14-54-01-513,1500580441514,0.13315023,-0.24057464,0.15120324,177,-0.02318903,-0.05111495,-0.0030795017,9.3185799101,1.8407776028,165.7139130391
-87.64716613,41.86968253,0,4.3825684,14-54-01-617,1500580441618,0.21418566,-0.18242675,0.11568544,177,0.012497327,-0.021287546,-0.0078731915,9.1420972135,1.8397643869,165.718748813
-87.64716613,41.86968253,0,4.3825684,14-54-01-716,1500580441717,0.09336001,-0.14383931,0.046245325,178,-0.0072100647,-0.02501597,0.0022468206,9.0088871803,1.8840970104,165.6736422437
-87.64716613,41.86968253,0,4.3825684,14-54-01-814,1500580441815,0.10958269,-0.19547002,-0.0294705,178,-0.01306902,-0.0031780486,-0.005210031,8.9199060371,1.8846626354,165.686469339
-87.64716613,41.86968253,0,4.3825684,14-54-01-913,1500580441914,0.1808123,-0.2165412,0.14415933,178,-0.011471123,0.006409331,0.0006489238,8.9223256317,1.9059969447,165.7650028541
-87.64716613,41.86968253,0,4.3825684,14-54-02-014,1500580442015,0.25288394,-0.13457103,0.016309967,178,-0.0061448,-0.0005148875,-0.012666881,8.9911184432,1.9029675424,165.7534871551
-87.64716613,41.86968253,0,4.3825684,14-54-02-114,1500580442116,0.21084242,-0.2133594,0.2772662,178,0.001844683,-0.026613867,0.010768937,8.910620395,1.8983232272,165.8120765178
-87.64716613,41.86968253,0,4.3825684,14-54-02-215,1500580442215,0.24398668,-0.13682848,0.15735935,178,0.023149973,-0.042592835,-0.01479741,8.7427369065,1.8859213112,165.8070494986
-87.64716633,41.86968086,0,4.5663285,14-54-02-316,1500580442317,0.19048859,-0.1400847,0.23305687,179,-0.0002858459,-0.10863923,0.003312085,8.3435704061,1.9658545882,165.7315759083
-87.64716633,41.86968086,0,4.5663285,14-54-02-413,1500580442415,0.10216476,-0.16597855,0.06702755,180,-0.018927973,-0.16563088,-0.008405823,7.6732197825,1.9467456399,165.7427091166
-87.64716633,41.86968086,0,4.5663285,14-54-02-514,1500580442515,0.02705022,-0.16028772,-0.05249252,182,-0.048755378,-0.12674873,0.010236304,6.9496807682,1.968129895,165.8361051233
-87.64716633,41.86968086,0,4.5663285,14-54-02-616,1500580442617,0.17128395,-0.14113674,0.023532385,184,-0.0013511104,-0.14698875,-0.023852158,6.0087235992,1.9430187045,166.063960234
-87.64716633,41.86968086,0,4.5663285,14-54-02-715,1500580442716,0.19607048,-0.18179998,0.12680097,186,-0.026384825,-0.12834662,0.029411064,5.5028686902,1.9796116564,166.1198311814
-87.64716633,41.86968086,0,4.5663285,14-54-02-814,1500580442815,0.2606702,-0.2069961,0.09101235,187,-0.005612168,-0.12035714,0.016627891,4.8881260517,1.8126954935,166.284206514
-87.64716633,41.86968086,0,4.5663285,14-54-02-917,1500580442917,0.20556824,-0.18762046,0.15364508,188,-0.007742697,-0.10757396,0.011301569,4.2005373113,1.7016033204,166.3404736124
-87.64716633,41.86968086,0,4.5663285,14-54-03-017,1500580443018,0.21376614,-0.20347995,0.1719667,190,-0.0018837426,-0.09532342,0.010236304,3.5874791681,1.6035244719,166.3712914259
-87.64716633,41.86968086,0,4.5663285,14-54-03-118,1500580443118,0.18317607,-0.20063724,0.08842852,194,0.006105741,-0.087866575,-0.014264778,3.0832180411,1.6187311411,166.3244499886
-87.64716633,41.86968086,0,4.5663285,14-54-03-220,1500580443221,0.24926908,-0.15827687,0.12374159,200,-0.0040142713,-0.094790794,-0.033972174,2.5594708113,1.6976779893,166.3261575359
-87.6471667,41.86967943,0,4.72279,14-54-03-318,1500580443318,0.19662812,-0.22273658,0.19647719,209,-0.04662485,-0.12887925,0.026747903,1.94477449,1.7858753683,166.4540459979
-87.6471667,41.86967943,0,4.72279,14-54-03-417,1500580443418,0.27726504,-0.17876372,0.14655572,216,0.019954178,-0.06815918,0.008105775,1.3983058888,1.6549230328,166.6026026124
-87.6471667,41.86967943,0,4.72279,14-54-03-517,1500580443518,0.14179154,-0.22805609,0.19886284,228,-0.024786927,-0.06922445,0.046455294,0.8403858885,1.517229941,166.7525252646
-87.6471667,41.86967943,0,4.72279,14-54-03-618,1500580443619,0.30650434,-0.20899892,0.13762818,237,0.0002467863,-0.0271465,0.013432098,0.4548954012,1.2753229967,166.8995928978
-87.6471667,41.86967943,0,4.72279,14-54-03-721,1500580443721,0.14846574,-0.16228373,0.01931901,248,-0.019460605,-0.043125466,0.018225787,0.1942919347,1.1732181786,166.9063547851
-87.6471667,41.86967943,0,4.72279,14-54-03-819,1500580443820,0.28408974,-0.16520083,0.16860971,258,0.025280502,-0.039397042,0.006507878,-0.0210028317,1.038932284,167.0729840801
-87.6471667,41.86967943,0,4.72279,14-54-03-919,1500580443919,0.15070249,-0.20929372,0.11870937,280,-0.0072100647,-0.09212763,0.013432098,-0.4271639794,1.0103268114,167.1019304218
-87.6471667,41.86967943,0,4.72279,14-54-04-019,1500580444020,0.24955666,-0.1848049,0.14218642,300,-0.014134284,-0.04152757,-0.0073405597,-0.8851867535,0.955939189,167.1597274826
-87.6471667,41.86967943,0,4.72279,14-54-04-120,1500580444121,0.2603487,-0.14916132,0.15290204,310,-0.008807962,-0.104910806,-0.0046773986,-1.2575626906,0.9528696593,167.3072868894
-87.64716705,41.86967851,0,4.823123,14-54-04-228,1500580444231,0.17050733,-0.16320269,0.07144664,318,0.026345767,-0.06656128,-0.005742663,-1.7447135534,0.962692752,167.3376675708
-87.64716705,41.86967851,0,4.823123,14-54-04-321,1500580444322,0.2396561,-0.17982239,0.042142738,323,0.0007794186,-0.09905185,0.013964729,-2.1253113308,0.9470070091,167.230583865
-87.64716705,41.86967851,0,4.823123,14-54-04-423,1500580444424,0.3104996,-0.2525484,0.4292051,329,0.13819852,-0.1975888,-0.030776378,-2.7050904444,0.9042795868,167.1526787274
-87.64716705,41.86967851,0,4.823123,14-54-04-521,1500580444522,0.14404713,-0.17245346,-0.009088494,332,0.009834166,-0.15604348,0.008638408,-3.7346560844,0.9774536445,166.6733770325
-87.64716705,41.86967851,0,4.823123,14-54-04-622,1500580444623,0.21340871,-0.21965566,-0.057579324,335,0.031139456,-0.064963385,-0.012134249,-4.5064602035,0.9201477171,166.5831365732
-87.64716705,41.86967851,0,4.823123,14-54-04-722,1500580444722,0.23829782,-0.21632503,0.1725692,335,0.006105741,-0.08467078,0.0006489238,-4.8728294162,0.9987590323,166.4712034331
-87.64716705,41.86967851,0,4.823123,14-54-04-822,1500580444823,0.28347135,-0.17967816,0.15234904,336,0.016225753,-0.08040972,-0.01479741,-5.2171759645,0.9851411292,166.446792337
-87.64716705,41.86967851,0,4.823123,14-54-04-924,1500580444924,0.2358266,-0.17528197,0.1852454,336,0.010899431,-0.09958448,-0.0020142372,-5.6346610322,1.0430846121,166.4036938433
-87.64716705,41.86967851,0,4.823123,14-54-05-022,1500580445023,0.24948049,-0.23694424,0.13196297,337,0.04339,-0.054310743,-0.0195911,-6.1175327815,1.0550787444,166.3766053131
-87.64716705,41.86967851,0,4.823123,14-54-05-124,1500580445125,0.26839566,-0.1713572,0.1379369,336,-0.018395342,-0.067093916,0.014497362,-6.427656667,1.1137147445,166.2022032628
-87.64716705,41.86967851,0,4.823123,14-54-05-223,1500580445224,0.20611912,-0.20926476,0.042139195,338,0.017823651,-0.08147499,0.0054426137,-7.0311832812,1.0564381655,166.2944791185
-87.64716729,41.86967796,0,4.8830967,14-54-05-322,1500580445323,0.29174146,-0.18408091,0.17999738,338,0.005573109,-0.06070233,0.017160524,-7.3485202733,1.0178383119,166.2358077935
-87.64716729,41.86967796,0,4.8830967,14-54-05-424,1500580445425,0.19393387,-0.18259886,0.07311757,339,-0.027982721,-0.087866575,0.017160524,-7.7864728566,0.9338825871,166.2899711937
-87.64716729,41.86967796,0,4.8830967,14-54-05-523,1500580445523,0.14232355,-0.21209602,0.032883525,340,-0.002949007,-0.024483338,0.010236304,-8.3341404762,0.8687610556,166.4185153538
-87.64716729,41.86967796,0,4.8830967,14-54-05-623,1500580445623,0.27828485,-0.22143988,0.1433716,341,0.0045078443,-0.025548603,0.016095258,-8.4838420011,0.8014960187,166.5644901568
-87.64716729,41.86967796,0,4.8830967,14-54-05-724,1500580445725,0.2621892,-0.19865377,0.123285405,342,-0.0024163749,-0.067093916,-0.0041447664,-8.7330286464,0.7496666756,166.5245608709
-87.64716729,41.86967796,0,4.8830967,14-54-05-824,1500580445825,0.25970593,-0.23133974,0.124771535,342,0.01569312,-0.111835025,0.008638408,-9.2276982668,0.7577369177,166.5614985339
-87.64716729,41.86967796,0,4.8830967,14-54-05-924,1500580445925,0.2504858,-0.17551886,0.018458236,342,-0.031178515,-0.1363361,-0.027580583,-9.981770788,0.7498533852,166.4918715855
-87.64716729,41.86967796,0,4.8830967,14-54-06-024,1500580446024,0.18118212,-0.16710263,0.087227955,342,-0.014666916,-0.1230203,-0.028113216,-10.6143820551,0.9063976925,166.5718804215
-87.64716729,41.86967796,0,4.8830967,14-54-06-124,1500580446125,0.2554016,-0.18659966,0.08676304,341,-0.0002858459,-0.100649744,-0.0014816051,-11.1483628293,1.0301949779,166.5717438177
-87.64716729,41.86967796,0,4.8830967,14-54-06-225,1500580446225,0.18092692,-0.25245902,0.064562924,341,0.0045078443,-0.035668615,-0.0009489729,-11.6018455553,1.0679631493,166.630824954
-87.6471675,41.86967766,0,4.9155517,14-54-06-325,1500580446326,0.17298703,-0.12539943,-0.0587508,341,-0.041298527,-0.046321258,0.008638408,-11.8759470231,1.1102141659,166.5603920433
-87.6471675,41.86967766,0,4.9155517,14-54-06-425,1500580446426,0.1841604,-0.18213297,0.04650052,341,0.020486811,-0.053778112,-0.01000372,-12.2510080784,1.146769445,166.7039079781
-87.6471675,41.86967766,0,4.9155517,14-54-06-526,1500580446526,0.25375152,-0.14759181,0.042098165,341,0.012497327,-0.03460335,-0.01000372,-12.5815269087,1.1743567925,166.5815792901
-87.6471675,41.86967766,0,4.9155517,14-54-06-625,1500580446626,0.3092696,-0.16635151,0.0748261,341,0.006105741,-0.06815918,0.0001162916,-12.8986705211,1.1988382182,166.5355438151
-87.6471675,41.86967766,0,4.9155517,14-54-06-726,1500580446727,0.22059686,-0.13426635,0.04720447,341,-0.0226564,-0.10704134,-0.0073405597,-13.2788431192,1.2107358741,166.4609035078
-87.6471675,41.86967766,0,4.9155517,14-54-06-825,1500580446826,0.19948289,-0.18593347,0.061805263,341,-0.0024163749,-0.11503082,-0.024384791,-13.8006917699,1.3277268761,166.4975406425
-87.6471675,41.86967766,0,4.9155517,14-54-06-927,1500580446928,0.19388779,-0.16551086,0.033167955,341,-0.0002858459,-0.094790794,0.009703672,-14.3846601374,1.4453805131,166.5886280453
-87.6471675,41.86967766,0,4.9155517,14-54-07-026,1500580447029,0.22842841,-0.23185599,0.07259426,341,0.001844683,-0.06656128,0.021954214,-14.8713794176,1.4014086089,166.6112086507
-87.6471675,41.86967766,0,4.9155517,14-54-07-126,1500580447127,0.26118547,-0.21732391,0.079523504,342,0.010366798,-0.08467078,-0.016927939,-15.2463670483,1.3101627244,166.5733147612
-87.6471675,41.86967766,0,4.9155517,14-54-07-227,1500580447232,0.27843246,-0.19537124,0.04067703,341,0.009301534,-0.05803917,-0.012666881,-15.6272474247,1.3616061084,166.5103130963
-87.64716767,41.8696775,0,4.9326835,14-54-07-326,1500580447328,0.2709705,-0.19371794,0.047696818,341,-0.01306902,-0.061767593,-0.0062752953,-15.9795929784,1.4120118373,166.4675287913
-87.64716767,41.8696775,0,4.9326835,14-54-07-426,1500580447428,0.18878753,-0.2283965,0.045868967,341,-0.019460605,-0.06549602,0.0049099815,-16.3166593988,1.4398930964,166.5149986061
-87.64716767,41.8696775,0,4.9326835,14-54-07-526,1500580447527,0.19680221,-0.0994113,0.033829693,342,-0.0018837426,-0.04898442,0.017693156,-16.7219098902,1.4368392548,166.5035921901
-87.64716767,41.8696775,0,4.9326835,14-54-07-626,1500580447627,0.314304,-0.27659804,-0.007872495,342,-0.030645883,-0.071887605,-0.005210031,-17.1202823811,1.3203393861,166.5334947583
-87.64716767,41.8696775,0,4.9326835,14-54-07-727,1500580447728,0.37962624,-0.17859398,0.26238394,342,0.027943663,-0.12621608,-0.04036376,-17.4251154313,1.5021979753,166.6057444994
-87.64716767,41.8696775,0,4.9326835,14-54-07-826,1500580447827,0.27007252,-0.1388214,0.14221945,341,-0.008807962,-0.17308772,-0.011601618,-18.0811619313,1.6625224721,166.5644491757
-87.64716767,41.8696775,0,4.9326835,14-54-07-927,1500580447928,0.19690414,-0.17327236,0.07821041,341,-0.0034816393,-0.14219506,0.015029995,-18.974941703,1.7450411891,166.598149329
-87.64716767,41.8696775,0,4.9326835,14-54-08-028,1500580448029,0.19200154,-0.27285156,-0.014274571,342,-0.0040142713,-0.0436581,0.0070405104,-19.698055538,1.6893359805,166.7197266962
-87.64716767,41.8696775,0,4.9326835,14-54-08-129,1500580448129,0.25975057,-0.18997736,-0.061160736,342,0.012497327,-0.010102267,0.0017141883,-19.9083280342,1.6379373129,166.6239947648
-87.64716767,41.8696775,0,4.9326835,14-54-08-229,1500580448230,0.29423413,-0.21678609,0.11113901,342,-0.016264811,-0.072952874,-0.0020142372,-20.0877605188,1.6134082893,166.5983542347
-87.64716781,41.86967745,0,4.9377513,14-54-08-329,1500580448330,0.16371712,-0.16799097,0.009740038,342,0.005573109,-0.095856056,0.0022468206,-20.4063820134,1.6278309808,166.568615591
-87.64716781,41.86967745,0,4.9377513,14-54-08-431,1500580448432,0.40324724,-0.23991504,0.2616669,342,0.023682605,-0.13260767,-0.005210031,-21.0169838497,1.6179829152,166.7383867731
-87.64716781,41.86967745,0,4.9377513,14-54-08-529,1500580448530,0.24305922,-0.15213826,-0.120016344,342,0.0007794186,-0.07668129,-0.011068985,-21.7015617574,1.5977479462,166.6170416323
-87.64716781,41.86967745,0,4.9377513,14-54-08-630,1500580448630,0.2780572,-0.2112449,0.1345443,342,-0.020525869,-0.091595,-0.017460572,-22.1799413767,1.7074924375,166.7409959053
-87.64716781,41.86967745,0,4.9377513,14-54-08-729,1500580448730,0.3127162,-0.092691675,0.098366514,342,-0.046092216,-0.2849405,-0.0030795017,-23.0521309205,1.8648397189,166.8341323648
-87.64716781,41.86967745,0,4.9377513,14-54-08-830,1500580448831,0.26584533,-0.19813813,-0.02591066,342,0.017823651,-0.15870665,0.008638408,-24.5120053084,1.922639341,166.9997507918
-87.64716781,41.86967745,0,4.9377513,14-54-08-930,1500580448930,0.22471838,-0.18437028,-0.04256571,343,-0.03277641,-0.08413815,0.03313949,-25.2573326261,1.766910601,166.9834949416
-87.64716781,41.86967745,0,4.9377513,14-54-09-037,1500580449037,0.3840522,-0.20910531,0.10700532,343,0.020486811,-0.08733394,-0.020123733,-25.5313495703,1.7076362984,167.0501712483
-87.64716781,41.86967745,0,4.9377513,14-54-09-129,1500580449130,0.2228282,-0.19355372,-0.037300102,343,0.003975212,-0.08040972,0.003312085,-25.9865031314,1.7411015573,167.0014446787
-87.64716781,41.86967745,0,4.9377513,14-54-09-229,1500580449230,0.3232674,-0.10778313,0.030141203,343,-0.045559585,-0.19013195,-0.0078731915,-26.597243279,1.7792462428,166.8459759129
-87.64716792,41.86967743,0,4.9396124,14-54-09-330,1500580449334,0.24698976,-0.23158608,0.004789516,343,0.023682605,-0.071887605,-0.027580583,-27.5774095759,1.9409585487,167.0504581162
-87.64716792,41.86967743,0,4.9396124,14-54-09-431,1500580449432,0.29692474,-0.09592054,0.011947057,343,-0.015199549,-0.054843374,-0.005742663,-27.9875658506,2.0462640574,166.9285255792
-87.64716792,41.86967743,0,4.9396124,14-54-09-532,1500580449535,0.31616682,-0.2382326,-0.04528262,343,-0.020525869,-0.028744396,0.016095258,-28.5142724734,1.9913950134,166.9477867126
-87.64716792,41.86967743,0,4.9396124,14-54-09-631,1500580449632,0.35636836,-0.23954745,0.07828824,343,-0.0024163749,-0.060169697,0.0017141883,-28.7992023523,1.9514874987,166.9949696594
-87.64716792,41.86967743,0,4.9396124,14-54-09-732,1500580449733,0.2701201,-0.18388666,0.023979569,343,0.0029099474,-0.0271465,-0.0046773986,-29.0332046333,1.967742922,166.9674713178
-87.64716792,41.86967743,0,4.9396124,14-54-09-834,1500580449835,0.27100542,-0.26543763,0.036159243,343,0.0023773152,-0.014363325,0.008105775,-29.1831409459,2.0037506121,166.9840550171
-87.64716792,41.86967743,0,4.9396124,14-54-09-933,1500580449936,0.23985162,-0.18733428,0.001804518,343,-0.012536387,0.034106206,-0.015330043,-29.2768887074,1.9908490251,166.921804673
-87.64716792,41.86967743,0,4.9396124,14-54-10-033,1500580450034,0.25796804,-0.17034313,0.122565836,343,-0.0093405945,0.022920929,0.005975246,-29.1920475126,2.0352185743,166.9503821845
-87.64716792,41.86967743,0,4.9396124,14-54-10-133,1500580450134,0.29046097,-0.19803977,0.03232489,343,0.013562592,0.04955254,-0.011068985,-29.1447006413,2.044534312,166.9986169804
-87.64716792,41.86967743,0,4.9396124,14-54-10-236,1500580450237,0.38616875,-0.20032318,0.072711654,343,0.01302996,0.0026809059,0.001181556,-28.9437359853,2.0320220458,166.946570939
-87.64716805,41.86967741,0,4.9414306,14-54-10-334,1500580450336,0.17810531,-0.1680791,-0.09284798,343,0.0077036372,0.036769368,-0.0009489729,-28.9661492511,1.9932203814,166.8136144766
-87.64716805,41.86967741,0,4.9414306,14-54-10-434,1500580450435,0.21319485,-0.17010967,0.08742657,343,-0.027450088,0.11133788,0.03047633,-28.7776804262,1.9721215002,166.8536393851
-87.64716805,41.86967741,0,4.9414306,14-54-10-535,1500580450535,0.36987743,-0.27531204,0.1911381,342,0.021019444,0.14436108,-0.07977854,-27.8276181882,2.110364529,166.9470900333
-87.64716805,41.86967741,0,4.9414306,14-54-10-636,1500580450637,0.14914365,-0.15489481,-0.103015415,342,-0.045026954,0.014931447,0.05764057,-27.4575943974,2.333748854,166.9008769734
-87.64716805,41.86967741,0,4.9414306,14-54-10-736,1500580450736,0.23716344,-0.22784632,0.021033373,342,-0.01573218,0.086304165,0.043792132,-27.3844328261,2.1590012389,167.1548780483
-87.64716805,41.86967741,0,4.9414306,14-54-10-835,1500580450836,0.37090176,-0.24657506,-0.06631927,343,0.013562592,0.100152604,-0.037700597,-26.8819272712,1.9957087047,167.2486565456
-87.64716805,41.86967741,0,4.9414306,14-54-10-936,1500580450936,0.33371285,-0.17981647,0.032162894,342,-0.04662485,0.06393361,-0.011068985,-26.3576231675,2.1455282638,167.2684640942
-87.64716805,41.86967741,0,4.9414306,14-54-11-036,1500580451037,0.19169629,-0.2440403,-0.022915566,342,0.0013120507,0.07245573,0.00917104,-25.9387532789,2.223263714,167.3655893842
-87.64716805,41.86967741,0,4.9414306,14-54-11-136,1500580451137,0.25413617,-0.16676404,-0.06697557,342,-0.027450088,0.088434696,-0.011601618,-25.5458568921,2.2333269305,167.1980721646
-87.64716805,41.86967741,0,4.9414306,14-54-11-240,1500580451240,0.26994482,-0.19401787,0.05117581,342,-0.002949007,0.08257574,0.0054426137,-25.1379357968,2.3293636591,167.3069043988
-87.64716822,41.86967734,0,4.9487114,14-54-11-337,1500580451338,0.26578054,-0.20189515,-0.03189075,342,-0.0045469035,0.099087335,0.006507878,-24.4869555896,2.1938608168,167.265281226
-87.64716822,41.86967734,0,4.9487114,14-54-11-438,1500580451439,0.35516837,-0.17895144,0.068812676,342,0.009834166,0.09642418,0.003312085,-23.8453139586,2.1487653466,167.1826905786
-87.64716822,41.86967734,0,4.9487114,14-54-11-539,1500580451540,0.2886828,-0.18671973,-0.03535219,342,-0.014666916,0.084173635,-0.009471089,-23.4001973606,2.1007083491,167.0903327606
-87.64716822,41.86967734,0,4.9487114,14-54-11-639,1500580451640,0.11216929,-0.25965676,-0.18696694,342,-0.032243777,0.20827696,0.022486845,-22.9174600806,2.1148284845,167.0979689121
-87.64716822,41.86967734,0,4.9487114,14-54-11-740,1500580451740,0.37281057,-0.19139373,0.024156673,341,0.003975212,0.17631902,-0.023319526,-21.8009034438,2.094341759,167.1051406107
-87.64716822,41.86967734,0,4.9487114,14-54-11-840,1500580451840,0.34412125,-0.16666713,0.17173623,341,-0.005079536,0.06073782,0.017693156,-21.030768879,2.1739535902,167.0635174379
-87.64716822,41.86967734,0,4.9487114,14-54-11-941,1500580451941,0.21314536,-0.19209258,0.020332964,341,-0.01786271,0.095358916,0.0049099815,-20.67913025,2.0961122721,167.1162464983
-87.64716822,41.86967734,0,4.9487114,14-54-12-043,1500580452043,0.23135974,-0.18596795,-0.11695335,341,-0.081245944,0.33610868,0.042194236,-19.8448465485,2.072268722,167.2606640181
-87.64716822,41.86967734,0,4.9487114,14-54-12-143,1500580452144,0.3466984,-0.23948288,0.08869446,341,-0.033309042,0.17578639,-0.0025468695,-18.3802883584,2.0557928116,167.6341524223
-87.64716842,41.86967725,0,4.9581795,14-54-12-245,1500580452246,0.34345317,-0.22319426,0.14987129,341,-0.019460605,0.0538136,-0.0030795017,-17.5993296514,2.0935084759,167.7584618652
-87.64716842,41.86967725,0,4.9581795,14-54-12-343,1500580452344,0.20476182,-0.15557362,-0.014328757,340,-0.010405858,0.18537377,-0.039831128,-17.0918107375,2.1868417302,167.7892660184
-87.64716842,41.86967725,0,4.9581795,14-54-12-445,1500580452446,0.25119,-0.21231934,0.07639733,340,0.005573109,0.16566637,0.0049099815,-16.1698154543,2.2912072342,167.7937466225
-87.64716842,41.86967725,0,4.9581795,14-54-12-546,1500580452546,0.26889193,-0.19240145,0.044571802,339,0.025813134,0.19229798,-0.03823323,-15.1706953825,2.3163549235,167.6752428404
-87.64716842,41.86967725,0,4.9581795,14-54-12-648,1500580452648,0.31971925,-0.10326328,0.0922262,337,-0.041831158,0.18058008,-0.0073405597,-14.1430865917,2.5383226246,167.6267894784
-87.64716842,41.86967725,0,4.9581795,14-54-12-747,1500580452748,0.13552448,-0.1951371,-0.0016541006,336,0.018356282,0.16886216,0.0049099815,-13.3595375354,2.5985215641,167.5984578537
-87.64716842,41.86967725,0,4.9581795,14-54-12-847,1500580452847,0.039227482,-0.18036032,-0.01239711,336,-0.034374308,0.22106013,0.0762827,-12.206943113,2.4572647143,167.4528928621
-87.64716842,41.86967725,0,4.9581795,14-54-12-947,1500580452948,0.3283955,-0.2123269,0.20255297,336,0.06416265,0.11080525,-0.013199514,-11.1005335759,2.2112348971,167.4391778423
-87.64716842,41.86967725,0,4.9581795,14-54-13-048,1500580453048,0.25493506,-0.21122114,0.09731777,335,-0.014134284,0.07405362,-0.008938456,-10.5940289452,2.1983708761,167.2801983592
-87.64716842,41.86967725,0,4.9581795,14-54-13-147,1500580453150,0.35188746,-0.15368843,0.14721306,335,0.03966157,0.077249415,-0.02651532,-10.0680762046,2.2069702977,167.1840019749
-87.64716858,41.86967711,0,4.9733458,14-54-13-248,1500580453249,0.20311467,-0.17441972,0.152555,333,0.012497327,0.18697166,-0.0078731915,-9.2557481462,2.3033171596,166.9610372796
-87.64716858,41.86967711,0,4.9733458,14-54-13-347,1500580453349,0.18680416,-0.1321651,0.11283542,331,0.021019444,0.101217866,0.0027794528,-8.3801076493,2.3200498424,166.8223844395
-87.64716858,41.86967711,0,4.9733458,14-54-13-451,1500580453452,0.16203693,-0.2004676,0.0525406,330,0.019421548,0.24982227,0.02355211,-7.7295688431,2.2661222973,166.6887722789
-87.64716858,41.86967711,0,4.9733458,14-54-13-548,1500580453548,0.25214705,-0.1347033,0.028038178,329,-0.0045469035,0.2572791,0.027280536,-6.3556455557,2.0353867677,166.605730839
-87.64716858,41.86967711,0,4.9733458,14-54-13-649,1500580453650,0.30968454,-0.116988935,0.18551418,325,-0.017330077,0.14010003,0.010236304,-4.9362647981,1.9435132529,166.5160777759
-87.64716858,41.86967711,0,4.9733458,14-54-13-749,1500580453750,0.25280806,-0.16730553,0.28771114,321,0.018356282,0.10281576,-0.0025468695,-4.0221656404,1.9276603838,166.5484528726
-87.64716858,41.86967711,0,4.9733458,14-54-13-850,1500580453851,0.22372594,-0.1531135,0.115161054,317,0.021552077,0.123055786,0.005975246,-3.4533235807,1.930028325,166.4235970146
-87.64716858,41.86967711,0,4.9733458,14-54-13-951,1500580453951,0.26194802,-0.15198818,0.046350513,312,-0.0002858459,0.10281576,0.0054426137,-2.8081372949,1.8831508157,166.2808324006
-87.64716858,41.86967711,0,4.9733458,14-54-14-051,1500580454052,0.26404354,-0.18464789,0.19451158,307,0.05297738,0.079379946,-0.01479741,-2.2620325081,1.8551807642,166.2112191125
-87.64716858,41.86967711,0,4.9733458,14-54-14-152,1500580454152,0.1590828,-0.147685,-0.019830415,303,0.04392263,0.06659677,-0.0009489729,-2.1040549283,1.9426197787,165.8952409012
-87.64716873,41.86967696,0,4.9896803,14-54-14-252,1500580454252,0.23144285,-0.25729656,0.23706003,296,0.0050404766,0.10973998,-0.0078731915,-1.6155299168,1.9387301994,165.8519648226
-87.64716873,41.86967696,0,4.9896803,14-54-14-353,1500580454353,0.1274058,-0.18461148,0.26999104,282,0.019421548,0.010137757,0.026747903,-0.9705343427,1.9793442118,165.7508507021
-87.64716873,41.86967696,0,4.9896803,14-54-14-454,1500580454460,0.2966781,-0.17855024,0.06636036,279,-0.016264811,0.033573575,0.010236304,-0.8202620168,1.8983319784,165.6516490346
-87.64716873,41.86967696,0,4.9896803,14-54-14-554,1500580454555,0.17096408,-0.18292552,0.15271415,273,0.016758386,0.05168307,-0.005742663,-0.5830555233,1.8714489941,165.6538893366
-87.64716873,41.86967696,0,4.9896803,14-54-14-654,1500580454655,0.13860796,-0.13839547,0.09876563,264,0.0007794186,0.043693587,0.0118342005,-0.2655245645,1.8809038969,165.5499201971
-87.64716873,41.86967696,0,4.9896803,14-54-14-756,1500580454757,0.2712124,-0.17670599,0.03501984,254,-0.014666916,0.058607288,-0.008405823,0.0492285951,1.8507163818,165.4658815495
-87.64716873,41.86967696,0,4.9896803,14-54-14-856,1500580454857,0.20107633,-0.17510334,0.20574656,243,0.026878398,0.11985999,-0.021188997,0.3850514075,1.9320950976,165.4158845648
-87.64716873,41.86967696,0,4.9896803,14-54-14-957,1500580454957,0.19408593,-0.076886944,0.20947413,227,0.055640537,0.12145789,-0.028113216,1.1510770532,2.1501155896,165.1313798651
-87.64716873,41.86967696,0,4.9896803,14-54-15-055,1500580455056,0.28930756,-0.19877021,0.26440838,219,0.026878398,0.051150437,0.0006489238,1.6589705602,2.247056678,164.9312963036
-87.64716873,41.86967696,0,4.9896803,14-54-15-156,1500580455157,0.1896296,-0.179776,0.14853601,215,0.025813134,0.06659677,-0.008938456,1.9185011001,2.263924257,164.779269953
-87.64716888,41.86967676,0,5.0116,14-54-15-257,1500580455258,0.22027984,-0.1701749,0.25968742,209,-0.0061448,0.02558409,-0.0009489729,2.3384384192,2.3186663022,164.6714895679
-87.64716888,41.86967676,0,5.0116,14-54-15-356,1500580455357,0.15996227,-0.13241962,-0.018342275,207,-0.01306902,0.059139922,-0.008405823,2.5512150335,2.3039007139,164.7030450419
-87.64716888,41.86967676,0,5.0116,14-54-15-457,1500580455457,0.24757175,-0.18085995,0.347973,203,-0.0018837426,0.040497795,0.019823683,2.8798880053,2.3197121749,164.7121701746
-87.64716888,41.86967676,0,5.0116,14-54-15-557,1500580455557,0.17204878,-0.14795738,0.12521796,199,-0.010938491,0.0671294,0.028878432,3.1504719257,2.2169782324,164.7394362898
-87.64716888,41.86967676,0,5.0116,14-54-15-658,1500580455658,0.29537,-0.14919119,0.20712757,193,0.01302996,0.091097854,-0.0009489729,3.5832807362,2.0467852862,164.7830265571
-87.64716888,41.86967676,0,5.0116,14-54-15-757,1500580455758,0.11220043,-0.16444132,0.029858747,190,-0.016797444,0.18217798,0.011301569,4.1744515382,1.9878108716,164.8116313893
-87.64716888,41.86967676,0,5.0116,14-54-15-858,1500580455858,0.18573697,-0.17053413,0.12625477,187,-0.029047985,0.05434623,0.0022468206,4.7980422598,1.9493408983,164.8403864857
-87.64716888,41.86967676,0,5.0116,14-54-15-957,1500580455958,0.16798696,-0.15144292,0.22510636,184,-0.035972204,0.09056522,0.016095258,5.4498361133,1.8674236648,164.947920984
-87.64716888,41.86967676,0,5.0116,14-54-16-058,1500580456058,0.28973892,-0.14675727,0.27068916,182,-0.007742697,0.043693587,0.027813168,5.8550511731,1.7260183652,165.1190582039
-87.64716888,41.86967676,0,5.0116,14-54-16-158,1500580456159,0.27663574,-0.15234807,0.18469018,180,0.0066383732,0.018659871,-0.005742663,6.1141117105,1.6086785967,165.1423901301
-87.647169,41.86967655,0,5.0347123,14-54-16-270,1500580456271,0.11441286,-0.17941134,0.113652036,180,-0.005612168,0.054878864,0.013432098,6.2313728251,1.6142448807,165.1282516385
-87.647169,41.86967655,0,5.0347123,14-54-16-359,1500580456360,0.12095088,-0.18556634,0.09524707,179,-0.013601652,0.07192309,0.001181556,6.555390596,1.5636041507,165.1559412254
-87.647169,41.86967655,0,5.0347123,14-54-16-461,1500580456462,0.07361985,-0.16069186,0.08559589,178,-0.0066774325,0.08790206,-0.0014816051,6.9419502747,1.6245642293,165.1554084706
-87.647169,41.86967655,0,5.0347123,14-54-16-561,1500580456561,0.34638816,-0.1488995,0.11791087,177,-0.014134284,0.106011555,0.0070405104,7.6332110956,1.6282487962,165.1022559385
-87.647169,41.86967655,0,5.0347123,14-54-16-661,1500580456662,0.2481055,-0.2125384,0.19723034,176,0.019421548,0.051150437,0.010236304,8.0456554838,1.5657469091,165.1327732237
-87.647169,41.86967655,0,5.0347123,14-54-16-761,1500580456762,0.13516079,-0.15395065,0.2220868,176,0.015160489,-0.0005148875,-0.016927939,8.2705958112,1.5770942012,165.0166326871
-87.647169,41.86967655,0,5.0347123,14-54-16-861,1500580456862,0.16494977,-0.17054734,0.23165514,176,0.001844683,0.019725136,0.0017141883,8.3382582265,1.6312233436,164.9191249065
-87.647169,41.86967655,0,5.0347123,14-54-16-962,1500580456962,0.19160512,-0.18559912,0.19697249,176,-0.0018837426,0.019192504,-0.003612134,8.5140041165,1.6380949408,164.893074565
-87.647169,41.86967655,0,5.0347123,14-54-17-062,1500580457063,0.14293545,-0.177248,0.2389775,176,0.023682605,0.045824114,-0.0030795017,8.613484968,1.6969511078,164.8715594691
-87.647169,41.86967655,0,5.0347123,14-54-17-163,1500580457163,0.2104302,-0.16097048,0.1914411,176,-0.005612168,0.023453562,-0.011068985,8.8186604355,1.7323477094,164.7670165937
-87.64716909,41.86967641,0,5.0501175,14-54-17-263,1500580457264,0.15441805,-0.19432564,0.2988535,176,0.026878398,-0.019157017,-0.0068079275,8.9262529904,1.7767900428,164.8008396904
-87.64716909,41.86967641,0,5.0501175,14-54-17-363,1500580457363,0.18347879,-0.12673858,0.25153637,176,0.008768902,-0.0063738422,-0.017993204,8.8979273422,1.8352223111,164.6844805877
-87.64716909,41.86967641,0,5.0501175,14-54-17-463,1500580457463,0.20060728,-0.13019657,0.28941154,177,0.0140952235,-0.015428591,-0.009471089,8.9288040661,1.8990939714,164.6554386234
-87.64716909,41.86967641,0,5.0501175,14-54-17-562,1500580457563,0.16593233,-0.1480444,0.25854322,177,0.006105741,-0.03194019,-0.008405823,8.8462808668,1.9539884152,164.617981866
-87.64716909,41.86967641,0,5.0501175,14-54-17-663,1500580457663,0.1549145,-0.22658491,0.12844661,177,-0.002949007,-0.0138306925,0.0038447173,8.6623182592,1.949921251,164.6221209606
-87.64716909,41.86967641,0,5.0501175,14-54-17-763,1500580457763,0.18437453,-0.17774034,0.26796287,177,0.0050404766,-0.05590864,0.005975246,8.5203100886,1.943716451,164.5876558261
-87.64716909,41.86967641,0,5.0501175,14-54-17-863,1500580457864,0.20078893,-0.20629565,0.14510173,178,0.01302996,-0.110769756,-0.0014816051,8.0623348057,1.9058456134,164.6100315258
-87.64716909,41.86967641,0,5.0501175,14-54-17-963,1500580457964,0.17984168,-0.12858339,0.17629083,180,0.001844683,-0.15338033,-0.008938456,7.3024156426,1.9516507829,164.546456125
-87.64716909,41.86967641,0,5.0501175,14-54-18-064,1500580458065,0.2390615,-0.1657979,0.102229364,181,-0.03490694,-0.047386523,0.0043773493,6.6818716122,1.933513429,164.6051547707
-87.64716909,41.86967641,0,5.0501175,14-54-18-166,1500580458168,0.21144074,-0.16552989,0.16827403,181,-0.016797444,-0.06975708,0.018225787,6.4328561485,1.8849360564,164.7146973446
-87.64716917,41.86967636,0,5.0555534,14-54-18-265,1500580458265,0.17182188,-0.15486914,0.17829007,182,0.014627856,-0.062300228,-0.008405823,6.045952399,1.8384141439,164.7615114612
-87.64716917,41.86967636,0,5.0555534,14-54-18-368,1500580458369,0.15196069,-0.12821974,0.22589394,183,-0.021591134,-0.09851922,0.010768937,5.5810777713,1.8796900443,164.705107759
-87.64716917,41.86967636,0,5.0555534,14-54-18-465,1500580458465,0.22598255,-0.15298703,0.097526446,185,0.034867883,-0.066028655,-0.021188997,5.0294012576,1.865976732,164.7241639868
-87.64716917,41.86967636,0,5.0555534,14-54-18-564,1500580458565,0.2135545,-0.14036852,0.16447946,188,-0.017330077,-0.13420556,-0.008938456,4.5392549299,1.95884532,164.634989037
-87.64716917,41.86967636,0,5.0555534,14-54-18-664,1500580458665,0.14762048,-0.101333894,0.13078412,194,0.0066383732,-0.12834662,0.001181556,3.6680591787,2.030022081,164.6065208086
-87.64716917,41.86967636,0,5.0555534,14-54-18-765,1500580458766,0.19142279,-0.13545486,0.14486071,198,-0.021058502,-0.052712847,0.02355211,3.0485290044,2.0082459438,164.6246754514
-87.64716917,41.86967636,0,5.0555534,14-54-18-864,1500580458865,0.2848512,-0.14436758,0.3186053,199,0.038063675,-0.047919158,-0.0195911,2.8199368736,1.9376409977,164.704998476
-87.64716917,41.86967636,0,5.0555534,14-54-18-965,1500580458965,0.23637636,-0.15429753,0.32837346,202,-0.0061448,-0.07774656,0.019823683,2.583362813,1.9931832423,164.6341011124
-87.64716917,41.86967636,0,5.0555534,14-54-19-065,1500580459066,0.24976781,-0.16295677,0.18601507,209,0.006105741,-0.1959909,0.025150007,1.9050072076,1.8810778533,164.6280768856
-87.64716917,41.86967636,0,5.0555534,14-54-19-165,1500580459166,0.11969943,-0.16975032,0.15579091,229,-0.047690112,-0.17734878,0.04112897,0.832561053,1.7511135474,164.692649494
-87.64716929,41.86967631,0,5.0609474,14-54-19-266,1500580459266,0.15401255,-0.22552457,0.04023561,258,-0.008807962,-0.06549602,0.016095258,-0.0831302591,1.529893005,164.9306132847
-87.64716929,41.86967631,0,5.0609474,14-54-19-366,1500580459366,0.27080888,-0.19585617,0.20839232,276,-0.022123767,-0.1395319,-0.0078731915,-0.5723315394,1.4596422682,165.0178348004
-87.64716929,41.86967631,0,5.0609474,14-54-19-465,1500580459466,0.3056841,-0.14842471,0.17476301,292,0.013562592,-0.045788627,-0.018525837,-1.1626770623,1.5322858123,165.1221864305
-87.64716929,41.86967631,0,5.0609474,14-54-19-565,1500580459566,0.25409168,-0.14990862,0.15343486,297,-0.014666916,-0.06549602,-0.0014816051,-1.4622460644,1.6212732521,165.0562341239
-87.64716929,41.86967631,0,5.0609474,14-54-19-666,1500580459670,0.20182446,-0.17574917,0.15716378,303,-0.0061448,-0.07774656,-0.003612134,-1.7954964368,1.6278906382,165.1439474132
-87.64716929,41.86967631,0,5.0609474,14-54-19-766,1500580459766,0.21956423,-0.08363315,0.042579886,308,-0.019993238,-0.109704494,0.013432098,-2.16588052,1.6391337699,165.1500399419
-87.64716929,41.86967631,0,5.0609474,14-54-19-865,1500580459866,0.2354363,-0.18315992,0.28479257,316,0.03220472,-0.137934,-0.015862675,-2.8778876136,1.6022403964,165.3122569347
-87.64716929,41.86967631,0,5.0609474,14-54-19-965,1500580459966,0.24285696,-0.16308108,0.10761484,322,0.005573109,-0.11822661,0.022486845,-3.6679464805,1.6052831389,165.2017308136
-87.64716929,41.86967631,0,5.0609474,14-54-20-066,1500580460066,0.17552835,-0.12856759,-0.024568506,326,-0.0018837426,-0.113965556,-0.0009489729,-4.3519506523,1.5331772587,165.1995451531
-87.64716929,41.86967631,0,5.0609474,14-54-20-165,1500580460166,0.18193579,-0.1707549,0.11280198,329,-0.01786271,-0.111835025,0.029943697,-4.9649285407,1.4922416939,165.2581481761
-87.64716944,41.86967617,0,5.0763254,14-54-20-265,1500580460266,0.23120801,-0.15615317,0.123050004,332,-0.011471123,-0.14698875,0.017160524,-5.5845948918,1.371407003,165.3681142218
-87.64716944,41.86967617,0,5.0763254,14-54-20-366,1500580460366,0.276352,-0.15329021,0.108092405,334,-0.018395342,-0.23114464,-0.0020142372,-6.4657400943,1.3124665259,165.4428774724
-87.64716944,41.86967617,0,5.0763254,14-54-20-466,1500580460467,0.13012049,-0.15692317,-0.004504922,336,0.003975212,-0.20664355,0.016095258,-8.0418024033,1.3843504249,165.4742143803
-87.64716944,41.86967617,0,5.0763254,14-54-20-566,1500580460567,0.309018,-0.15994263,0.21941993,337,-0.010938491,-0.14219506,0.017160524,-9.0440814376,1.2926060433,165.5304951391
-87.64716944,41.86967617,0,5.0763254,14-54-20-667,1500580460670,0.2590632,-0.087717794,0.07960992,338,0.001844683,-0.09052973,-0.012666881,-9.7092411174,1.2668923021,165.4565515111
-87.64716944,41.86967617,0,5.0763254,14-54-20-767,1500580460768,0.30193084,-0.12502968,0.2603323,338,-0.0013511104,-0.104910806,-0.012666881,-10.2350828675,1.3591787233,165.5075320431
-87.64716944,41.86967617,0,5.0763254,14-54-20-869,1500580460870,0.3423,-0.14153185,0.2140658,338,-0.0040142713,-0.2471236,-0.0137321465,-11.0090150174,1.4124068143,165.5254954406
-87.64716944,41.86967617,0,5.0763254,14-54-20-967,1500580460969,0.26500276,-0.1533112,0.13075365,339,-0.03277641,-0.31583318,0.0001162916,-12.5335021411,1.4310264436,165.6391771092
-87.64716944,41.86967617,0,5.0763254,14-54-21-066,1500580461067,0.1893684,-0.15387452,0.047870435,340,0.005573109,-0.137934,0.0022468206,-14.042433509,1.4377492708,165.8112432347
-87.64716944,41.86967617,0,5.0763254,14-54-21-166,1500580461167,0.23520005,-0.23138714,0.06392529,340,0.030606825,-0.11343292,-0.0025468695,-14.7606159474,1.4178505818,165.8318294249
-87.64716956,41.86967604,0,5.09065,14-54-21-267,1500580461272,0.3436538,-0.15153803,0.20387311,340,-0.011471123,-0.1347382,-0.0014816051,-15.3574600752,1.4216519023,165.6915646601
-87.64716956,41.86967604,0,5.09065,14-54-21-368,1500580461369,0.2886093,-0.19858794,0.09524145,340,0.0013120507,-0.1065087,-0.0062752953,-16.103858025,1.468584053,165.778431006
-87.64716956,41.86967604,0,5.09065,14-54-21-473,1500580461474,0.3129567,-0.19615221,0.14460821,341,-0.010405858,-0.124618195,-0.003612134,-16.802436113,1.5242678106,165.8292612738
-87.64716956,41.86967604,0,5.09065,14-54-21-568,1500580461578,0.26155528,-0.20134178,0.097224444,341,-0.012003755,-0.11343292,-0.01479741,-17.4620223585,1.5978370588,165.903792298
-87.64716956,41.86967604,0,5.09065,14-54-21-668,1500580461671,0.22404745,-0.16989514,0.06298173,340,-0.034374308,-0.09798659,-0.0068079275,-18.1514770212,1.7273149272,165.9664797742
-87.64716956,41.86967604,0,5.09065,14-54-21-768,1500580461770,0.31358624,-0.19786252,0.21786593,340,0.021552077,-0.056441274,-0.01479741,-18.6140703658,1.799195838,166.0585643846
-87.64716956,41.86967604,0,5.09065,14-54-21-870,1500580461871,0.32201988,-0.14822885,0.19476488,340,-0.005612168,-0.15338033,0.008638408,-19.012886819,1.8528670376,165.9789790204
-87.64716956,41.86967604,0,5.09065,14-54-21-970,1500580461971,0.26361004,-0.21136414,-0.020748788,341,-0.026917458,-0.10917186,0.0049099815,-19.8884675517,1.8447890583,166.0858168394
-87.64716956,41.86967604,0,5.09065,14-54-22-070,1500580462071,0.28245267,-0.18555899,0.10937818,341,-0.008275329,-0.072952874,0.016627891,-20.5270595032,1.8856741437,166.2150713392
-87.64716956,41.86967604,0,5.09065,14-54-22-170,1500580462173,0.3627199,-0.18284188,0.0580089,341,0.010366798,-0.09266026,-0.01479741,-21.0557981073,1.8360075694,166.267417909
-87.64716966,41.86967587,0,5.1094513,14-54-22-272,1500580462273,0.36591575,-0.15776742,0.062882,341,-0.034374308,-0.093725525,0.001181556,-21.5781504844,1.9160219549,166.2488671152
-87.64716966,41.86967587,0,5.1094513,14-54-22-372,1500580462373,0.15589592,-0.18610086,-0.04996259,341,0.0007794186,-0.036201246,-0.014264778,-22.0818820583,1.9888582384,166.4166575424
-87.64716966,41.86967587,0,5.1094513,14-54-22-472,1500580462472,0.4082852,-0.23298053,0.25944835,341,-0.0013511104,-0.05164758,-0.0009489729,-22.2329521824,2.063808679,166.467009697
-87.64716966,41.86967587,0,5.1094513,14-54-22-572,1500580462573,0.27374092,-0.17622235,-0.06527722,341,-0.0013511104,-0.07028971,-0.0020142372,-22.5928946139,2.0755079392,166.4642776213
-87.64716966,41.86967587,0,5.1094513,14-54-22-673,1500580462674,0.26908195,-0.16126099,0.227958,341,0.0034425796,-0.06815918,-0.0195911,-22.9601470554,2.119767565,166.5180448704
-87.64716966,41.86967587,0,5.1094513,14-54-22-772,1500580462773,0.2594616,-0.13353567,0.035684973,341,-0.018395342,-0.014895958,-0.01000372,-23.2424438964,2.2299538843,166.5550781561
-87.64716966,41.86967587,0,5.1094513,14-54-22-873,1500580462874,0.4888615,-0.17122857,0.26082465,341,0.0023773152,-0.056441274,0.0001162916,-23.324641808,2.3024095982,166.6161263869
-87.64716966,41.86967587,0,5.1094513,14-54-22-974,1500580462975,0.23391572,-0.18989839,-0.07154592,341,0.016758386,-0.007439106,-0.024384791,-23.6832369847,2.3066244653,166.6172055568
-87.64716966,41.86967587,0,5.1094513,14-54-23-075,1500580463076,0.36058187,-0.1854085,0.2143249,341,-0.011471123,-0.05164758,-0.0041447664,-23.8384291279,2.3268638099,166.5858140074
-87.64716966,41.86967587,0,5.1094513,14-54-23-175,1500580463178,0.27874476,-0.18587631,0.10798284,341,0.01569312,-0.050049685,0.021421582,-24.0962499861,2.3443085399,166.6054166503
-87.6471697,41.86967579,0,5.1183085,14-54-23-274,1500580463275,0.47573918,-0.18758911,0.17326151,341,0.023149973,-0.12248767,0.0038447173,-24.3971146964,2.1996502559,166.5042069072
-87.6471697,41.86967579,0,5.1183085,14-54-23-384,1500580463387,0.26101857,-0.19760026,0.16887707,341,-0.033841677,-0.113965556,-0.0068079275,-25.3328301221,2.2465264845,166.6893596752
-87.6471697,41.86967579,0,5.1183085,14-54-23-483,1500580463484,0.33845815,-0.21909253,0.14692849,341,0.005573109,-0.0750834,-0.0025468695,-25.840782753,2.3675275545,166.8630923669
-87.6471697,41.86967579,0,5.1183085,14-54-23-583,1500580463584,0.25966787,-0.1272269,-0.08100383,341,-0.0034816393,-0.04419073,-0.0068079275,-26.2306892244,2.3772654833,166.8083552309
-87.6471697,41.86967579,0,5.1183085,14-54-23-684,1500580463685,0.28945157,-0.221557,0.15499738,341,0.0066383732,-0.05164758,0.007573142,-26.5694375789,2.4228734312,166.8961778033
-87.6471697,41.86967579,0,5.1183085,14-54-23-783,1500580463784,0.37773442,-0.19751617,0.049467042,342,0.011432063,-0.06549602,0.0038447173,-26.9248942837,2.4000563305,166.8766024811
-87.6471697,41.86967579,0,5.1183085,14-54-23-884,1500580463885,0.37476736,-0.19699642,0.11212493,342,0.0013120507,-0.035668615,-0.015862675,-27.1541256775,2.3828244035,166.8373425538
-87.6471697,41.86967579,0,5.1183085,14-54-23-987,1500580463987,0.2364853,-0.15802602,-0.013931542,341,-0.03490694,0.020790402,0.0017141883,-27.3502818803,2.4782797123,166.8057460987
-87.6471697,41.86967579,0,5.1183085,14-54-24-085,1500580464087,0.23574975,-0.16517459,-0.0001449919,341,-0.01786271,0.045824114,0.010768937,-27.2718081294,2.5362257565,166.8356486668
-87.6471697,41.86967579,0,5.1183085,14-54-24-186,1500580464187,0.2944703,-0.15345143,-0.15380126,341,-0.024786927,0.2221254,-0.030243745,-26.8994723196,2.5531061422,166.795937947
-87.64716973,41.86967574,0,5.1238422,14-54-24-287,1500580464288,0.22172499,-0.19538805,0.25293666,340,-0.019993238,0.30255285,-0.059005886,-25.601635632,2.8400869989,166.8866701799
-87.64716973,41.86967574,0,5.1238422,14-54-24-387,1500580464390,0.24663366,-0.07619483,0.20159204,339,0.012497327,0.37232766,-0.0073405597,-23.6414703779,3.1650913053,166.8057187779
-87.64716973,41.86967574,0,5.1238422,14-54-24-487,1500580464488,0.42044896,-0.16815162,0.17874652,338,0.0050404766,0.29403073,-0.0041447664,-21.7467195531,3.0896749178,166.6260028405
-87.64716973,41.86967574,0,5.1238422,14-54-24-588,1500580464589,0.32977447,-0.12089733,0.32676873,338,0.02208471,0.24928963,0.0022468206,-19.7501237776,3.0340011921,166.5097803415
-87.64716973,41.86967574,0,5.1238422,14-54-24-687,1500580464688,0.25306448,-0.21536306,0.011597584,337,-0.02531956,0.2620728,0.0006489238,-18.4949194232,2.961889122,166.39093505
-87.64716973,41.86967574,0,5.1238422,14-54-24-787,1500580464788,0.28407747,-0.16094024,0.1741332,337,0.029008927,0.17791691,0.0006489238,-17.3464640954,2.9162380586,166.3522078774
-87.64716973,41.86967574,0,5.1238422,14-54-24-888,1500580464889,0.31312853,-0.17379315,0.261928,336,0.009834166,0.14968741,0.020356316,-16.4420172757,2.8312901421,166.2431707375
-87.64716973,41.86967574,0,5.1238422,14-54-24-989,1500580464990,0.39538237,-0.13016932,0.22781467,336,-0.031178515,0.059139922,0.016095258,-15.61949516,2.6922234352,166.1435182775
-87.64716973,41.86967574,0,5.1238422,14-54-25-089,1500580465090,0.28418133,-0.17405598,0.14339674,336,0.0007794186,0.1262516,0.0049099815,-15.2625750872,2.6176061798,166.3003121001
-87.64716973,41.86967574,0,5.1238422,14-54-25-188,1500580465189,0.17343432,-0.15185209,0.006847113,336,-0.025852192,0.24076752,0.0054426137,-14.4420217735,2.6101230673,166.2284311892
-87.64716981,41.86967565,0,5.1337924,14-54-25-289,1500580465289,0.28827447,-0.1770947,0.27292004,335,-0.0013511104,0.1166642,0.0027794528,-13.2750856614,2.6256638821,166.2538804741
-87.64716981,41.86967565,0,5.1337924,14-54-25-389,1500580465390,0.29576048,-0.14099145,0.13300583,334,-0.005079536,0.08790206,0.010768937,-12.6293390867,2.6137748706,166.1996351117
-87.64716981,41.86967565,0,5.1337924,14-54-25-489,1500580465490,0.27691814,-0.15439162,0.2641412,334,0.058836333,0.09855471,0.012899466,-12.121344621,2.4914071224,166.0792461974
-87.64716981,41.86967565,0,5.1337924,14-54-25-590,1500580465590,0.21025662,-0.0795635,0.08460288,334,-0.0008184781,0.17312323,0.03367212,-11.3789483082,2.3243831706,165.7581726649
-87.64716981,41.86967565,0,5.1337924,14-54-25-689,1500580465690,0.2625133,-0.24397151,0.22577892,334,0.0066383732,0.1331758,0.020356316,-10.4831416778,2.1416489298,165.7761907039
-87.64716981,41.86967565,0,5.1337924,14-54-25-790,1500580465790,0.26274902,-0.104529195,0.17144698,334,-0.01573218,0.13051264,0.013432098,-9.7931986565,2.0609052082,165.6460756002
-87.64716981,41.86967565,0,5.1337924,14-54-25-890,1500580465890,0.30142662,-0.23287942,0.3221193,333,-0.007742697,0.14169793,0.016627891,-9.0147269921,1.9988111047,165.7039409629
